[
  {
    "name": "Generálna prokuratúra Slovenskej republiky",
    "type": "general",
    "address": "Štúrova 2",
    "zipcode": "812 85",
    "city": "Bratislava 1",
    "phone": "02/208 37 505, 02/595 32 505",
    "fax": null,
    "email": "GPSR@genpro.gov.sk",
    "electronic_registry": "https://www.slovensko.sk/sk/lokator-sluzieb",
    "registry": {
      "note": "Na základe rozhodnutia generálneho prokurátora Slovenskej republiky pre prijímanie podaní, ktoré sú urobené ústne do zápisnice na Generálnej prokuratúre Slovenskej republiky sa v rámci úradných hodín vymedzuje konkrétny čas od 9:00 h do 11:00 h.",
      "hours": {
        "friday": "8:00 – 15:00",
        "monday": "8:00 – 15:00",
        "tuesday": "8:00 – 15:00",
        "thursday": "8:00 – 15:00",
        "wednesday": "8:00 – 15:00"
      },
      "phone": "02/208 37 766, 02/595 32 766"
    },
    "employees": [
      {
        "name": "Dr. JUDr. Maroš Žilinka, PhD.",
        "position": "generálny prokurátor Slovenskej republiky",
        "phone": "02/208 37 60602/208 37 620",
        "rank": 1
      },
      {
        "name": "JUDr. Jozef Kandera",
        "position": "prvý námestník generálneho prokurátora Slovenskej republiky",
        "phone": "02/208 37 528",
        "rank": 2
      },
      {
        "name": "JUDr. Vladimír Javorský, PhD.",
        "position": "riaditeľ trestného odboru",
        "phone": "02/208 37 617",
        "rank": 3
      },
      {
        "name": "JUDr. Mária Hansková",
        "position": "zástupkyňa riaditeľa trestného odboru",
        "phone": "02/208 37 703",
        "rank": 4
      },
      {
        "name": "JUDr. Adam Petrovič, PhD.",
        "position": "vedúci oddelenia všeobecnej kriminality trestného odboru",
        "phone": "02/208 37 584",
        "rank": 5
      },
      {
        "name": "JUDr. Rudolf Bernát, PhD.",
        "position": "vedúci oddelenia majetkovej kriminality trestného odboru",
        "phone": "02/208 37 626",
        "rank": 6
      },
      {
        "name": "JUDr. Tomáš Jarábek",
        "position": "vedúci oddelenia násilnej kriminality trestného odboru",
        "phone": "02/208 37 669",
        "rank": 7
      },
      {
        "name": "JUDr. Igor Dorica",
        "position": "vedúci prieskumného oddelenia trestného odboru",
        "phone": "02/208 37 882",
        "rank": 8
      },
      {
        "name": "JUDr. Oliver Janíček",
        "position": "riaditeľ odboru závažnej kriminality",
        "phone": "02/208 37 902",
        "rank": 9
      },
      {
        "name": "JUDr. Peter Jenčík",
        "position": "zástupca riaditeľa odboru závažnej kriminality",
        "phone": "02/208 37 903",
        "rank": 10
      },
      {
        "name": "Mgr. Alica Kováčová, PhD.",
        "position": "riaditeľka medzinárodného odboru",
        "phone": "02/208 37 417",
        "rank": 11
      },
      {
        "name": "JUDr. Katarína Laiferová",
        "position": "zástupkyňa riaditeľky medzinárodného odboru",
        "phone": "02/208 37 316",
        "rank": 12
      },
      {
        "name": "JUDr. Jozef Hausleitner",
        "position": "vedúci oddelenia právneho styku s cudzinou a extradícií medzinárodného odboru",
        "phone": "02/208 37 413",
        "rank": 13
      },
      {
        "name": "JUDr. Ing. Ladislav Majerník",
        "position": "vedúci oddelenia medzinárodného práva verejného a európskych záležitostí medzinárodného odboru",
        "phone": "02/208 37 420",
        "rank": 14
      },
      {
        "name": "Mgr. Marián Kuna",
        "position": "riaditeľ registra trestov",
        "phone": "02/208 37 240",
        "rank": 15
      },
      {
        "name": "JUDr. Jarmila Budská",
        "position": "zástupkyňa riaditeľa registra trestov",
        "phone": "02/208 37 134",
        "rank": 16
      },
      {
        "name": "JUDr. Mária Foltýnová",
        "position": "vedúca oddelenia správnych činností registra trestov",
        "phone": "02/208 37 236",
        "rank": 17
      },
      {
        "name": "Mgr. Ľubomír Čavara",
        "position": "vedúci oddelenia prevádzky informačného systému registra trestov",
        "phone": "02/208 37 243",
        "rank": 18
      },
      {
        "name": "Ing. Adam Mrázik",
        "position": "vedúci oddelenia koncepcie a rozvoja IS RT a mikrofilmovej archivácie a indexácie registra trestov",
        "phone": "02/208 37 245",
        "rank": 19
      },
      {
        "name": "Mgr. Jozef Sedlák",
        "position": "námestník generálneho prokurátora Slovenskej republiky",
        "phone": "02/208 37 679",
        "rank": 21
      },
      {
        "name": "JUDr. Matúš Kamenár",
        "position": "riaditeľ netrestného odboru",
        "phone": "02/208 37 520",
        "rank": 22
      },
      {
        "name": "JUDr. Slavomír Filipčík",
        "position": "zástupca riaditeľa netrestného odboru",
        "phone": "02/208 37 731",
        "rank": 23
      },
      {
        "name": "JUDr. Peter Mihál",
        "position": "vedúci oddelenia dozoru orgánov verejnej správy netrestného odboru",
        "phone": "02/208 37 527",
        "rank": 24
      },
      {
        "name": "JUDr. Ivana Klorusová, PhD.",
        "position": "vedúca oddelenia civilného procesu a právneho zastupovania netrestného odboru",
        "phone": "02/208 37 532",
        "rank": 25
      },
      {
        "name": "Mgr. Eva Kukanová",
        "position": "riaditeľka odboru legislatívy, stratégie a ústavného práva",
        "phone": "02/208 37 818",
        "rank": 26
      },
      {
        "name": "JUDr. Marta Kolcunová, PhD.",
        "position": "zástupkyňa riaditeľky odboru legislatívy, stratégie a ústavného práva",
        "phone": "02/208 37 718",
        "rank": 27
      },
      {
        "name": "JUDr. Miroslav Fíger",
        "position": "vedúci oddelenia legislatívy odboru legislatívy, stratégie a ústavného práva",
        "phone": "02/208 37 823",
        "rank": 28
      },
      {
        "name": "JUDr. Lenka Valachovičová",
        "position": "vedúca oddelenia stratégie a analytických činností odboru legislatívy, stratégie a ústavného práva",
        "phone": "02/208 37 667",
        "rank": 29
      },
      {
        "name": "JUDr. Ľudmila Borodovčáková",
        "position": "vedúca oddelenia ústavného práva a ochrany ľudských práv odboru legislatívy, stratégie a ústavného práva",
        "phone": "02/208 37 713",
        "rank": 30
      },
      {
        "name": "Ing. Michal Druska",
        "position": "riaditeľ ekonomického odboru",
        "phone": "02/208 37 310",
        "rank": 31
      },
      {
        "name": "Mgr. Denisa Hadrbolcová, MSc",
        "position": "zástupkyňa riaditeľa ekonomického odboru",
        "phone": "02/208 37 314",
        "rank": 32
      },
      {
        "name": "Ing. Lucia Néčová",
        "position": "vedúca oddelenia rozpočtu a verejného obstarávania ekonomického odboru",
        "phone": "02/208 37 332",
        "rank": 33
      },
      {
        "name": "Mgr. Katarína Juríková",
        "position": "vedúca oddelenia financovania a kontroly ekonomického odboru",
        "phone": "02/208 37 333",
        "rank": 34
      },
      {
        "name": "Mgr. Martin Tonhajzer",
        "position": "vedúci oddelenia hospodárskej správy ekonomického odboru",
        "phone": "02/208 37 312",
        "rank": 35
      },
      {
        "name": "Ing. Andrej Fedor",
        "position": "riaditeľ odboru informatiky",
        "phone": "02/208 37 754",
        "rank": 36
      },
      {
        "name": "JUDr. Silvia Cehláriková",
        "position": "zástupkyňa riaditeľa odboru informatiky",
        "phone": "02/208 37 748",
        "rank": 37
      },
      {
        "name": "Ing. Miroslav Šmejkal",
        "position": "vedúci oddelenia stratégie a rozvoja IS a rezortnej štatistiky odboru informatiky",
        "phone": "02/208 37 534",
        "rank": 38
      },
      {
        "name": "Ing. Peter Psota",
        "position": "vedúci oddelenia prevádzky IS, informačnej bezpečnosti a zverejňovania odboru informatiky",
        "phone": "02/208 37 755",
        "rank": 39
      },
      {
        "name": "Mgr. Vladimíra Gedrová",
        "position": "riaditeľka Kancelárie generálneho prokurátora Slovenskej republiky",
        "phone": "02/208 37 833",
        "rank": 41
      },
      {
        "name": "Mgr. Monika Holzerová",
        "position": "zástupkyňa riaditeľky Kancelárie generálneho prokurátora Slovenskej republiky",
        "phone": "02/208 37 563",
        "rank": 42
      },
      {
        "name": "JUDr. Elena Kráľová",
        "position": "riaditeľka osobného úradu",
        "phone": "02/208 37 561",
        "rank": 44
      },
      {
        "name": "JUDr. Liliana Škodová",
        "position": "zástupkyňa riaditeľky osobného úradu",
        "phone": "02/208 37 756",
        "rank": 45
      },
      {
        "name": "Ing. Darina Repáková",
        "position": "vedúca oddelenia prokurátorov a právnych čakateľov prokuratúry",
        "phone": "02/208 37 850",
        "rank": 46
      },
      {
        "name": "JUDr. Miroslava Daněková",
        "position": "vedúca oddelenia štátnych zamestnancov a ostatných zamestnancov prokuratúry",
        "phone": "02/208 37 522",
        "rank": 47
      },
      {
        "name": "PhDr. Gabriela Urbanská",
        "position": "vedúca oddelenia vzdelávania a ďalších činností",
        "phone": "02/208 37 765",
        "rank": 48
      },
      {
        "name": "Zuzana Matesová",
        "position": "vedúca referátu správy registratúry",
        "phone": "02/208 37 675",
        "rank": 49
      },
      {
        "name": "Ing. Daniel König, PhD.",
        "position": "vedúci referátu vnútorného auditu ",
        "phone": "02/208 36 672",
        "rank": 51
      },
      {
        "name": "JUDr. Martina Hrušková",
        "position": "vedúca referátu ochrany utajovaných skutočností",
        "phone": "02/208 37 656",
        "rank": 52
      },
      {
        "name": "Mgr. Peter Kuna, PhD.",
        "position": "manažér kybernetickej bezpečnosti a informačnej bezpečnosti",
        "phone": "02/208 36 674",
        "rank": 53
      }
    ]
  },
  {
    "name": "Krajská prokuratúra v Banskej Bystrici",
    "type": "regional",
    "address": "Partizánska cesta 1",
    "zipcode": "975 62",
    "city": "Banská Bystrica",
    "phone": "048/28 36 111",
    "fax": "048/28 36 880",
    "email": "kpbbystrica@genpro.gov.sk podatelna.kpBB@genpro.gov.sk",
    "electronic_registry": "ico://sk/00166456",
    "registry": {
      "note": "Čas vymedzený pre prijímanie ústne urobených podaní do zápisnice na Krajskej prokuratúre v Banskej Bystrici a okresných prokuratúrach v obvode jej pôsobnosti od 9:00 h do 11:00 h a od 13:00 h do 14:30 h.",
      "hours": {
        "friday": "8:00 – 15:00",
        "monday": "8:00 – 15:00",
        "tuesday": "8:00 – 15:00",
        "thursday": "8:00 – 15:00",
        "wednesday": "8:00 – 15:00"
      },
      "phone": null
    },
    "employees": [
      {
        "name": "JUDr. Marek Kostor",
        "position": "krajský prokurátor v Banskej Bystrici",
        "phone": "048/2836 170",
        "rank": 1
      },
      {
        "name": "JUDr. Kamil Baran",
        "position": "poverený výkonom funkcie námestníka krajského prokurátora pre trestný úsek",
        "phone": "048/2836 436",
        "rank": 2
      },
      {
        "name": "JUDr. Elena Remetová",
        "position": "námestníčka krajského prokurátora pre netrestný úsek",
        "phone": "048/2836 505",
        "rank": 3
      },
      {
        "name": "JUDr. Katarína Hrušecká",
        "position": "vedúca organizačného a personálneho oddelenia",
        "phone": "048/2836 516",
        "rank": 4
      },
      {
        "name": "JUDr. Jana Kopernická, PhD.",
        "position": "vedúca medzinárodného oddelenia",
        "phone": "048/2836 432",
        "rank": 5
      },
      {
        "name": "Mgr. Jakub Mikuda",
        "position": "poverený výkonom funkcie vedúceho oddelenia prvostupňového a boja proti organizovanému zločinu",
        "phone": "048/2836 621",
        "rank": 6
      },
      {
        "name": "JUDr. Kamil Baran",
        "position": "vedúci trestného oddelenia",
        "phone": "048/2836 436",
        "rank": 7
      },
      {
        "name": "JUDr. Jana Gallová",
        "position": "vedúca netrestného oddelenia",
        "phone": "048/2836 172",
        "rank": 8
      },
      {
        "name": "Ing. Kristína Mlynárčiková",
        "position": "vedúca oddelenia vnútornej správy",
        "phone": "048/2836 511",
        "rank": 9
      },
      {
        "name": "Ing. Ladislav Szatmári",
        "position": "vedúci oddelenia informatiky",
        "phone": "048/2836 527",
        "rank": 10
      },
      {
        "name": "Mgr. Elena Lénártová",
        "position": "vedúca správy registratúry",
        "phone": "048/2836 175",
        "rank": 11
      },
      {
        "name": "Mgr. Lenka Cabanová",
        "position": "referát ochrany utajovaných skutočností",
        "phone": "048/2836 532",
        "rank": 12
      }
    ]
  },
  {
    "name": "Krajská prokuratúra v Bratislave",
    "type": "regional",
    "address": "Vajnorská 47",
    "zipcode": "812 56",
    "city": "Bratislava 1",
    "phone": "02/208 36 111",
    "fax": "02/44 25 82 66",
    "email": "kpbratislava@genpro.gov.sk, podatelna.kpBA@genpro.gov.sk",
    "electronic_registry": "ico://sk/00166448",
    "registry": {
      "note": "Na základe rozhodnutia krajského prokurátora v Bratislave pre prijímanie podaní, ktoré sú urobené ústne do zápisnice na Krajskej prokuratúre v Bratislave a okresných prokuratúrach v obvode jej pôsobnosti sa v rámci úradných hodín vymedzuje konkrétny čas od 09:00 h do 11:00 h.",
      "hours": {
        "friday": "8:00 – 15:00",
        "monday": "8:00 – 15:00",
        "tuesday": "8:00 – 15:00",
        "thursday": "8:00 – 15:00",
        "wednesday": "8:00 – 15:00"
      },
      "phone": null
    },
    "employees": [
      {
        "name": "JUDr. Rastislav Remeta, PhD.",
        "position": "krajský prokurátor",
        "phone": "02/208 36 282",
        "rank": 1
      },
      {
        "name": "Mgr. Miloš Textoris",
        "position": "námestník krajského prokurátora pre netrestný úsek",
        "phone": "02/208 36 308",
        "rank": 2
      },
      {
        "name": "JUDr. Borislav Usačev, PhD.",
        "position": "námestník krajského prokurátora pre trestný úsek",
        "phone": "02/208 36 111",
        "rank": 3
      },
      {
        "name": "JUDr. Anetta Hullová",
        "position": "vedúca oddelenia dohľadu v trestnom konaní",
        "phone": "02/208 36 111",
        "rank": 4
      },
      {
        "name": "Mgr. Patrik Hujsa",
        "position": "poverený výkonom funkcie vedúceho oddelenia dozoru v trestnom konaní",
        "phone": "02/208 36 111",
        "rank": 5
      },
      {
        "name": "JUDr. Ľubomír Pagáč, PhD.",
        "position": "vedúci netrestného oddelenia",
        "phone": "02/208 36 111",
        "rank": 6
      },
      {
        "name": "JUDr. Alexandra Oleárová",
        "position": "vedúca medzinárodného oddelenia",
        "phone": "02/208 36 111",
        "rank": 7
      },
      {
        "name": "JUDr. Juraj Hudec",
        "position": "vedúci organizačného a personálneho oddelenia",
        "phone": "02/208 36 251",
        "rank": 8
      },
      {
        "name": "Mgr. Karol Hakl",
        "position": "vedúci oddelenia informatiky",
        "phone": "02/208 36 272",
        "rank": 9
      },
      {
        "name": "Mgr. Tatiana Olšová",
        "position": "vedúca oddelenia vnútornej správy",
        "phone": "02/208 36 111",
        "rank": 10
      },
      {
        "name": "Mgr. Gabriela Pecha Klenová",
        "position": "vedúca správy registratúry",
        "phone": "02/208 36 111",
        "rank": 11
      },
      {
        "name": "Mgr. Viera Kuruczová",
        "position": "vedúca referátu ochrany utajovaných skutočností",
        "phone": "02/208 36 111",
        "rank": 12
      }
    ]
  },
  {
    "name": "Krajská prokuratúra v Košiciach",
    "type": "regional",
    "address": "Mojmírova 5",
    "zipcode": "041 62",
    "city": "Košice",
    "phone": "055/68 16 111, 055/62 28 471, 055/52 28 215",
    "fax": "055/78 82 04",
    "email": "kpkosice@genpro.gov.sk podatelna.kpKE@genpro.gov.sk",
    "electronic_registry": "ico://sk/00166464",
    "registry": {
      "note": "",
      "hours": {
        "friday": "8:00 – 15:00",
        "monday": "8:00 – 15:00",
        "tuesday": "8:00 – 15:00",
        "thursday": "8:00 – 15:00",
        "wednesday": "8:00 – 15:00"
      },
      "phone": null
    },
    "employees": [
      {
        "name": "JUDr.  Judita Gulbišová",
        "position": "krajská prokurátorka",
        "phone": "055/68 16 317",
        "rank": 1
      },
      {
        "name": "JUDr. Zuzana Šotiková",
        "position": "námestníčka krajskej prokurátorky pre netrestný úsek",
        "phone": "055/68 16 270",
        "rank": 2
      },
      {
        "name": "JUDr. Branislav Bujňák",
        "position": "námestník krajskej prokurátorky pre trestný úsek",
        "phone": "055/68 16 315",
        "rank": 3
      },
      {
        "name": "JUDr. Jarmila Janová",
        "position": "vedúca organizačného a personálneho oddelenia",
        "phone": "055/68 16 273",
        "rank": 4
      },
      {
        "name": "JUDr. Martina Chmurová",
        "position": "vedúca trestného oddelenia",
        "phone": "055/68 16 383",
        "rank": 5
      },
      {
        "name": "JUDr. Matúš Hendrichovský",
        "position": "vedúci netrestného oddelenia",
        "phone": "055/68 16 279",
        "rank": 6
      },
      {
        "name": "JUDr. Branislav Reday",
        "position": "vedúci oddelenia dozoru v trestnom konaní vo veciach organizovaného \t\t\tzločinu a príslušníkov ozbrojených bezpečnostných zborov",
        "phone": "055/68 16 249",
        "rank": 7
      },
      {
        "name": "Mgr. Jana Závišová",
        "position": "vedúca medzinárodného oddelenia",
        "phone": "055/68 16 272",
        "rank": 8
      },
      {
        "name": "Ing. Michal Telepovský",
        "position": "vedúci oddelenia informatiky",
        "phone": "055/68 16 353",
        "rank": 9
      },
      {
        "name": "Ing. Adrián Šenkýr",
        "position": "vedúci oddelenia vnútornej správy",
        "phone": "055/68 16 312",
        "rank": 10
      },
      {
        "name": "Ing. Adriana Sopková",
        "position": "vedúca správy registratúry",
        "phone": "055/68 16 388",
        "rank": 11
      },
      {
        "name": "Mgr. Lucia Maindlová",
        "position": "bezpečnostný zamestnanec",
        "phone": "055/68 16 278",
        "rank": 12
      }
    ]
  },
  {
    "name": "Krajská prokuratúra v Nitre",
    "type": "regional",
    "address": "Damborského 1",
    "zipcode": "949 66",
    "city": "Nitra",
    "phone": "037/65 22 730",
    "fax": "037/65 22 726",
    "email": "kpnitra@genpro.gov.sk podatelna.kpNR@genpro.gov.sk",
    "electronic_registry": "ico://sk/35629061",
    "registry": {
      "note": "",
      "hours": {
        "friday": "7:30 – 15:00",
        "monday": "7:30 – 15:00",
        "tuesday": "7:30 – 15:00",
        "thursday": "7:30 – 15:00",
        "wednesday": "7:30 – 15:00"
      },
      "phone": null
    },
    "employees": [
      {
        "name": "Mgr. Martin Tamaškovič",
        "position": "krajský prokurátor",
        "phone": "037/65 22 730",
        "rank": 1
      },
      {
        "name": "Mgr. Rastislav Brestenský",
        "position": "námestník krajského prokurátora pre trestný úsek",
        "phone": "037/65 22 730",
        "rank": 2
      },
      {
        "name": "JUDr. Jaroslav Maček",
        "position": "námestník krajského prokurátora pre netrestný úsek",
        "phone": "037/74 17 479",
        "rank": 3
      },
      {
        "name": "JUDr. Ivan Huszár",
        "position": "vedúci oddelenia dohľadu v trestnom konaní",
        "phone": "037/65 22 730",
        "rank": 4
      },
      {
        "name": "JUDr. Richard Singer",
        "position": "vedúci netrestného oddelenia",
        "phone": "037/65 22 730",
        "rank": 5
      },
      {
        "name": "JUDr. Karin Martha Kolenčíková",
        "position": "vedúca oddelenia medzinárodného a boja s organizovaným zločinom",
        "phone": "037/65 22 730",
        "rank": 6
      },
      {
        "name": "Ing. Marcela Jakabová",
        "position": "vedúca oddelenia vnútornej správy",
        "phone": "037/65 22 730",
        "rank": 7
      },
      {
        "name": "JUDr. Miroslava Jahnátková",
        "position": "vedúca organizačného a personálneho oddelenia",
        "phone": "037/65 22 725",
        "rank": 8
      },
      {
        "name": "Ing. Ján Bízik",
        "position": "vedúci oddelenia informatiky",
        "phone": "037/65 22 730",
        "rank": 9
      },
      {
        "name": "Dagmar Ferancová",
        "position": "vedúca správy registratúry krajskej prokuratúry",
        "phone": "037/65 22 730",
        "rank": 10
      },
      {
        "name": "Ing. Lenka Gundová",
        "position": "bezpečnostný zamestnanec",
        "phone": "037/65 22 730",
        "rank": 11
      }
    ]
  },
  {
    "name": "Krajská prokuratúra v Prešove",
    "type": "regional",
    "address": "Masarykova 16",
    "zipcode": "080 01",
    "city": "Prešov 1",
    "phone": "051/77 22 406, 051/77 22 507, 051/77 22 578, 051/77 20 749",
    "fax": "051/77 34 196",
    "email": "kppresov@genpro.gov.sk podatelna.kpPO@genpro.gov.sk",
    "electronic_registry": "ico://sk/17069807",
    "registry": {
      "note": "",
      "hours": {
        "friday": "8:00 – 15:00",
        "monday": "8:00 – 15:00",
        "tuesday": "8:00 – 15:00",
        "thursday": "8:00 – 15:00",
        "wednesday": "8:00 – 15:00"
      },
      "phone": null
    },
    "employees": [
      {
        "name": "JUDr. Pavol Matija",
        "position": "krajský prokurátor",
        "phone": "051/7721619",
        "rank": 1
      },
      {
        "name": "JUDr. Drahoslav Dorič, PhD.",
        "position": "námestník krajského prokurátora pre trestný úsek",
        "phone": "051/77 33 129",
        "rank": 2
      },
      {
        "name": "Mgr. Peter Sabo",
        "position": "námestník krajského prokurátora pre netrestný úsek",
        "phone": "051/77 22 623",
        "rank": 3
      },
      {
        "name": "JUDr. Adrián Kandráč",
        "position": "vedúci trestného oddelenia",
        "phone": "051/28 36 113",
        "rank": 4
      },
      {
        "name": "JUDr. Stanislava Sinčáková",
        "position": "vedúca organizačného a personálneho oddelenia ",
        "phone": "051/28 36 113",
        "rank": 5
      },
      {
        "name": "JUDr. Peter Dzadík, PhD.",
        "position": "vedúci netrestného oddelenia",
        "phone": "051/28 36 113",
        "rank": 6
      },
      {
        "name": "JUDr. Rudolf Staško",
        "position": "vedúci medzinárodného oddelenia",
        "phone": "051/28 36 113",
        "rank": 7
      },
      {
        "name": "JUDr. Marek Švagerko",
        "position": "vedúci oddelenia dozoru v trestnom konaní",
        "phone": "051/28 36 113",
        "rank": 8
      },
      {
        "name": "Ing. Jana Grejták Kandráčová",
        "position": "vedúca oddelenia vnútornej správy",
        "phone": "051/28 36 113",
        "rank": 9
      },
      {
        "name": "Ing. Milan Cenker",
        "position": "poverený vedúci oddelenia informatiky",
        "phone": "051/77 21 877",
        "rank": 10
      },
      {
        "name": "PhDr. Anna Cupráková",
        "position": "vedúca správy registratúry",
        "phone": "051/28 36 113",
        "rank": 11
      },
      {
        "name": "PhDr. Lýdia Priesterová",
        "position": "bezpečnostný zamestnanec",
        "phone": "051/28 36 113",
        "rank": 12
      }
    ]
  },
  {
    "name": "Krajská prokuratúra v Trenčíne",
    "type": "regional",
    "address": "Legionárska 7158/5",
    "zipcode": "912 50",
    "city": "Trenčín",
    "phone": "032/65 38 051, 032/65 38 015",
    "fax": "032/65 22 077",
    "email": "podatelna.kptn@genpro.gov.sk",
    "electronic_registry": "ico://sk/35629045",
    "registry": {
      "note": "",
      "hours": {
        "friday": "7:00 – 15:00",
        "monday": "7:00 – 15:00",
        "tuesday": "7:00 – 15:00",
        "thursday": "7:00 – 15:00",
        "wednesday": "7:00 – 15:00"
      },
      "phone": null
    },
    "employees": [
      {
        "name": "JUDr. Monika Piknová",
        "position": "krajská prokurátorka",
        "phone": "032/65 380 10",
        "rank": 1
      },
      {
        "name": "JUDr. Silvia Fabová",
        "position": "námestníčka krajskej prokurátorky pre trestný úsek",
        "phone": "032/65 380 12",
        "rank": 2
      },
      {
        "name": "Mgr. Ivana Spišiaková",
        "position": "námestníčka krajskej prokurátorky pre netrestný úsek",
        "phone": "032/65 380 13",
        "rank": 3
      },
      {
        "name": "Mgr. Ronald Kutiš",
        "position": "vedúci oddelenia trestného a boja s organizovaným zločinom",
        "phone": "032/65 380 18",
        "rank": 4
      },
      {
        "name": "Mgr. Ľudmila Porubská",
        "position": "vedúca medzinárodného oddelenia",
        "phone": "032/65 380 38",
        "rank": 5
      },
      {
        "name": "JUDr. Jaroslav Bartošek",
        "position": "vedúci netrestného oddelenia",
        "phone": "032/65 380 28",
        "rank": 6
      },
      {
        "name": "Mgr. Marián Sipavý",
        "position": "vedúci organizačného a personálneho oddelenia",
        "phone": "032/65 380 26",
        "rank": 7
      },
      {
        "name": "Ing. Anna Kazárová",
        "position": "vedúca oddelenia vnútornej správy",
        "phone": "032/65 380 60",
        "rank": 8
      },
      {
        "name": "Mgr. Silvia Repová",
        "position": "bezpečnostný zamestnanec",
        "phone": "032/65 380 11",
        "rank": 9
      },
      {
        "name": "Mgr. Renáta Kyselicová",
        "position": "vedúca správy registratúry",
        "phone": "032/65 380 25",
        "rank": 10
      },
      {
        "name": "Ing. Vladimír Žákovic",
        "position": "vedúci oddelenia informatiky",
        "phone": "032/65 380 27",
        "rank": 11
      }
    ]
  },
  {
    "name": "Krajská prokuratúra v Trnave",
    "type": "regional",
    "address": "Dolné bašty 2",
    "zipcode": "917 44",
    "city": "Trnava 1",
    "phone": "033/59 17 211",
    "fax": "033/55 11 474",
    "email": "kptrnava@genpro.gov.sk, podatelna.kpTT@genpro.gov.sk",
    "electronic_registry": "ico://sk/35629053",
    "registry": {
      "note": "",
      "hours": {
        "friday": "8:00 – 15:00",
        "monday": "8:00 – 15:00",
        "tuesday": "8:00 – 15:00",
        "thursday": "8:00 – 15:00",
        "wednesday": "8:00 – 15:00"
      },
      "phone": null
    },
    "employees": [
      {
        "name": "JUDr. Ivo Vendel",
        "position": "krajský prokurátor",
        "phone": "033/59 17 238",
        "rank": 1
      },
      {
        "name": "JUDr. Tatiana Hunová",
        "position": "námestníčka krajského prokurátora pre netrestný úsek",
        "phone": "033/59 17 238",
        "rank": 2
      },
      {
        "name": "JUDr. Lýdia Bartošová, PhD.",
        "position": "námestníčka krajského prokurátora pre trestný úsek",
        "phone": "033/59 17 238",
        "rank": 3
      },
      {
        "name": "JUDr. Mojmír Huna",
        "position": "vedúci organizačného a personálneho oddelenia, hovorca",
        "phone": "033/59 17 211",
        "rank": 4
      },
      {
        "name": "Mgr. Michaela Závodná",
        "position": "vedúca medzinárodného oddelenia a dohľadu v trestnom konaní",
        "phone": "033/59 17 211",
        "rank": 5
      },
      {
        "name": "JUDr. Jarmila Slobodová",
        "position": "vedúca oddelenia dozoru v trestnom konaní a boja s organizovaným zločinom",
        "phone": "033/59 17 211",
        "rank": 6
      },
      {
        "name": "JUDr. Michaela Marková",
        "position": "vedúca netrestného oddelenia",
        "phone": "033/59 17 211",
        "rank": 7
      },
      {
        "name": "Ing. Janka Luptáková",
        "position": "vedúca oddelenia vnútornej správy",
        "phone": "033/59 17 211",
        "rank": 8
      },
      {
        "name": "Ing. Peter Jablonický",
        "position": "vedúci oddelenia informatiky",
        "phone": "033/59 17 211",
        "rank": 9
      },
      {
        "name": "Mgr. Monika Opetová",
        "position": "vedúca správy registratúry",
        "phone": "033/59 17 211",
        "rank": 10
      },
      {
        "name": "Mgr. Martina Blechová",
        "position": "bezpečnostný zamestnanec",
        "phone": "033/59 17 211",
        "rank": 11
      }
    ]
  },
  {
    "name": "Krajská prokuratúra v Žiline",
    "type": "regional",
    "address": "Moyzesova 20",
    "zipcode": "011 04",
    "city": "Žilina",
    "phone": "041/56 26 448, 041/ 56 25 706, 041/70 03 181 -182",
    "fax": "041/562 66 59",
    "email": "podatelna.kpZA@genpro.gov.sk",
    "electronic_registry": "ico://sk/35996072",
    "registry": {
      "note": "",
      "hours": {
        "friday": "7:00 – 14:30",
        "monday": "7:00 – 14:30",
        "tuesday": "7:00 – 14:30",
        "thursday": "7:00 – 14:30",
        "wednesday": "7:00 – 14:30"
      },
      "phone": null
    },
    "employees": [
      {
        "name": "Mgr. Viera Kubalová",
        "position": "námestníčka krajského prokurátora pre netrestný úsek",
        "phone": "041/56 26 574",
        "rank": 2
      },
      {
        "name": "Mgr. Alexandra Mesiarkinová",
        "position": "námestníčka krajského prokurátora pre trestný úsek",
        "phone": "041/56 26 448",
        "rank": 3
      },
      {
        "name": "JUDr. Jozef Vrabec",
        "position": "vedúci medzinárodného oddelenia",
        "phone": "041/56 26 448",
        "rank": 4
      },
      {
        "name": "JUDr. Juraj Čižmárik",
        "position": "vedúci netrestného oddelenia",
        "phone": "041/56 26 448",
        "rank": 5
      },
      {
        "name": "JUDr. Tatiana Vooková, PhD.",
        "position": "vedúca oddelenia trestného a boja s organizovaným zločinom",
        "phone": "041/56 26 448",
        "rank": 6
      },
      {
        "name": "Mgr. Andrea De Carlo",
        "position": "vedúca organizačného a personálneho oddelenia",
        "phone": "041/56 26 448",
        "rank": 7
      },
      {
        "name": "Ing. Janka Tretinová",
        "position": "vedúca oddelenia vnútornej správy",
        "phone": "041/56 26 448",
        "rank": 8
      },
      {
        "name": "Ing. Boris Hanulík",
        "position": "vedúci oddelenia informatiky",
        "phone": "041/56 26 448",
        "rank": 9
      },
      {
        "name": "Ing. Zuzana Březinová",
        "position": "vedúca správy registratúry",
        "phone": "041/56 26 448",
        "rank": 10
      },
      {
        "name": "Anna Vajciková",
        "position": "vedúca referátu utajovaných skutočností",
        "phone": "041/56 26 448",
        "rank": 11
      }
    ]
  },
  {
    "name": "Okresná prokuratúra Bánovce nad Bebravou",
    "type": "district",
    "address": "K Zornici 892",
    "zipcode": "957 01",
    "city": "Bánovce nad Bebravou",
    "phone": "038/76 01 681",
    "fax": "038/76 01 656",
    "email": "podatelna.opbn@genpro.gov.sk",
    "electronic_registry": "ico://sk/35629045",
    "registry": {
      "note": "",
      "hours": {
        "friday": "7:00 – 15:00",
        "monday": "7:00 – 15:00",
        "tuesday": "7:00 – 15:00",
        "thursday": "7:00 – 15:00",
        "wednesday": "7:00 – 15:00"
      },
      "phone": null
    },
    "employees": [
      {
        "name": "JUDr. Eva Žiklová",
        "position": "okresná prokurátorka",
        "phone": "038/53 666 12",
        "rank": 1
      },
      {
        "name": "JUDr. Andrea Šmondrková",
        "position": "námestníčka okresnej prokurátorky",
        "phone": "038/53 666 19",
        "rank": 2
      },
      {
        "name": "Denisa Hrušková",
        "position": "vedúca správy registratúru",
        "phone": "038/53 666 11",
        "rank": 3
      }
    ]
  },
  {
    "name": "Okresná prokuratúra Banská Bystrica",
    "type": "district",
    "address": "Partizánska cesta 1",
    "zipcode": "975 63",
    "city": "Banská Bystrica",
    "phone": "048/28 36 111",
    "fax": "048/28 36 881",
    "email": "podatelna.opbb@genpro.gov.sk",
    "electronic_registry": "ico://sk/00166456",
    "registry": {
      "note": "Čas vymedzený pre prijímanie ústne urobených podaní do zápisnice na Krajskej prokuratúre Banská Bystrica a okresných prokuratúrach v obvode jej pôsobnosti od 9:00 h do 11:00 h a od 13:00 h do 14:30 h.",
      "hours": {
        "friday": "8:00 – 15:00",
        "monday": "8:00 – 15:00",
        "tuesday": "8:00 – 15:00",
        "thursday": "8:00 – 15:00",
        "wednesday": "8:00 – 15:00"
      },
      "phone": null
    },
    "employees": [
      {
        "name": "JUDr. Miroslav Kmeč",
        "position": "okresný prokurátor",
        "phone": "048/2836 111",
        "rank": 1
      },
      {
        "name": "JUDr. Danka Michaličková",
        "position": "námestníčka okresného prokurátora pre netrestný úsek",
        "phone": "048/2836 203",
        "rank": 2
      },
      {
        "name": "JUDr. Alexandra Jelšovská",
        "position": "námestníčka okresného prokurátora pre trestný úsek v Banskej Bystrici",
        "phone": "048/28 36 111",
        "rank": 3
      },
      {
        "name": "Lucia Ďuricová",
        "position": "vedúca správy registratúry",
        "phone": "048/2836 301",
        "rank": 4
      }
    ]
  },
  {
    "name": "Okresná prokuratúra Bardejov",
    "type": "district",
    "address": "Kellerova 7",
    "zipcode": "085 43",
    "city": "Bardejov 3",
    "phone": "054/47 22 068",
    "fax": "054/47 46 182",
    "email": "podatelna.opbj@genpro.gov.sk",
    "electronic_registry": "ico://sk/17069807",
    "registry": {
      "note": "",
      "hours": {
        "friday": "8:00 – 15:00",
        "monday": "8:00 – 15:00",
        "tuesday": "8:00 – 15:00",
        "thursday": "8:00 – 15:00",
        "wednesday": "8:00 – 15:00"
      },
      "phone": null
    },
    "employees": [
      {
        "name": "JUDr. Vladislava Slosarčíková",
        "position": "námestníčka okresnej prokurátorky",
        "phone": "054/472 21 20",
        "rank": 1
      },
      {
        "name": "Mgr. Milena Zápachová",
        "position": "vedúca správy registratúry",
        "phone": "054/472 20 68",
        "rank": 2
      }
    ]
  },
  {
    "name": "Okresná prokuratúra Bratislava I",
    "type": "district",
    "address": "P. O. Box 65",
    "zipcode": "820 18",
    "city": "Bratislava 218",
    "phone": "02/208 36 611",
    "fax": "02/55 56 64 48",
    "email": "podatelna.opba1@genpro.gov.sk",
    "electronic_registry": "ico://sk/00166448",
    "registry": {
      "note": "Na základe rozhodnutia krajského prokurátora v Bratislave pre prijímanie podaní, ktoré sú urobené ústne do zápisnice na Krajskej prokuratúre Bratislava a okresných prokuratúrach v obvode jej pôsobnosti sa v rámci úradných hodín vymedzuje konkrétny čas od 09:00 h do 11:00 h.",
      "hours": {
        "friday": "8:00 – 15:00",
        "monday": "8:00 – 15:00",
        "tuesday": "8:00 – 15:00",
        "thursday": "8:00 – 15:00",
        "wednesday": "8:00 – 15:00"
      },
      "phone": null
    },
    "employees": [
      {
        "name": "JUDr. Katarína Kuljačková",
        "position": "okresná prokurátorka",
        "phone": "02/208 36 611",
        "rank": 1
      },
      {
        "name": "JUDr. Hana Štaffenová",
        "position": "námestníčka okresnej prokurátorky",
        "phone": "02/208 36 611",
        "rank": 2
      },
      {
        "name": "JUDr. Norbert Fecko",
        "position": "námestník okresnej prokurátorky",
        "phone": "02/208 36 611",
        "rank": 3
      },
      {
        "name": "Bibiana Kovácsová",
        "position": "vedúca správy registratúry",
        "phone": "02/208 36 601",
        "rank": 4
      }
    ]
  },
  {
    "name": "Okresná prokuratúra Bratislava II",
    "type": "district",
    "address": "P. O. Box 53",
    "zipcode": "820 18",
    "city": "Bratislava 218",
    "phone": "02/208 36 711",
    "fax": "02/55 41 04 12",
    "email": "podatelna.opba2@genpro.gov.sk",
    "electronic_registry": "ico://sk/00166448",
    "registry": {
      "note": "Na základe rozhodnutia krajského prokurátora v Bratislave pre prijímanie podaní, ktoré sú urobené ústne do zápisnice na Krajskej prokuratúre Bratislava a okresných prokuratúrach v obvode jej pôsobnosti sa v rámci úradných hodín vymedzuje konkrétny čas od 09.00 h do 11.00 h.",
      "hours": {
        "friday": "8:00 – 15:00",
        "monday": "8:00 – 15:00",
        "tuesday": "8:00 – 15:00",
        "thursday": "8:00 – 15:00",
        "wednesday": "8:00 – 15:00"
      },
      "phone": null
    },
    "employees": [
      {
        "name": "JUDr. Mgr. Peter Dana",
        "position": "okresný prokurátor",
        "phone": "02/208 36 711",
        "rank": 1
      },
      {
        "name": "JUDr. Matúš Kuril",
        "position": "námestník okresného prokurátora",
        "phone": "02/208 36 711",
        "rank": 2
      },
      {
        "name": "JUDr. Romana Ďuricová",
        "position": "poverená výkonom funkcie námestníčky okresného prokurátora",
        "phone": "02/208 36 711",
        "rank": 3
      },
      {
        "name": "Mgr. Katarína Lazíková",
        "position": "vedúca správy registratúry",
        "phone": "02/208 36 732",
        "rank": 4
      }
    ]
  },
  {
    "name": "Okresná prokuratúra Bratislava III",
    "type": "district",
    "address": "Vajnorská 47",
    "zipcode": "832 77",
    "city": "Bratislava 3",
    "phone": "02/208 36 111",
    "fax": "02/44 45 07 09",
    "email": "podatelna.opba3@genpro.gov.sk",
    "electronic_registry": "ico://sk/00166448",
    "registry": {
      "note": "Na základe rozhodnutia krajského prokurátora v Bratislave pre prijímanie podaní, ktoré sú urobené ústne do zápisnice na Krajskej prokuratúre Bratislava a okresných prokuratúrach v obvode jej pôsobnosti sa v rámci úradných hodín vymedzuje konkrétny čas od 09:00 h do 11:00 h.",
      "hours": {
        "friday": "8:00 – 15:00",
        "monday": "8:00 – 15:00",
        "tuesday": "8:00 – 15:00",
        "thursday": "8:00 – 15:00",
        "wednesday": "8:00 – 15:00"
      },
      "phone": null
    },
    "employees": [
      {
        "name": "JUDr. Adriana Jesztrebiová",
        "position": "okresná prokurátorka",
        "phone": "02/208 36 314",
        "rank": 1
      },
      {
        "name": "JUDr. Ján Tichý",
        "position": "námestník okresnej prokurátorky",
        "phone": "02/208 36 314",
        "rank": 2
      },
      {
        "name": "JUDr. Peter Hatala",
        "position": "námestník okresnej prokurátorky",
        "phone": "02/208 36 314",
        "rank": 3
      },
      {
        "name": "Mgr. Eva Brezovanová",
        "position": "vedúca správy registratúry",
        "phone": "02/208 36 314",
        "rank": 4
      }
    ]
  },
  {
    "name": "Okresná prokuratúra Bratislava IV",
    "type": "district",
    "address": "Hanulova 9/A",
    "zipcode": "840 11",
    "city": "Bratislava 411",
    "phone": "02/208 36 411 - 413",
    "fax": "02/642 84 217",
    "email": "podatelna.opba4@genpro.gov.sk",
    "electronic_registry": "ico://sk/00166448",
    "registry": {
      "note": "Na základe rozhodnutia krajského prokurátora v Bratislave pre prijímanie podaní, ktoré sú urobené ústne do zápisnice na Krajskej prokuratúre Bratislava a okresných prokuratúrach v obvode jej pôsobnosti sa v rámci úradných hodín vymedzuje konkrétny čas od 09.00 h do 11.00 h.",
      "hours": {
        "friday": "8:00 – 15:00",
        "monday": "8:00 – 15:00",
        "tuesday": "8:00 – 15:00",
        "thursday": "8:00 – 15:00",
        "wednesday": "8:00 – 15:00"
      },
      "phone": null
    },
    "employees": [
      {
        "name": "JUDr. Lucia Štefanková",
        "position": "okresná prokurátorka",
        "phone": "02/208 36 411",
        "rank": 1
      },
      {
        "name": "JUDr. Matej Papulák",
        "position": "námestník okresnej prokurátorky",
        "phone": "02/208 36 433",
        "rank": 2
      },
      {
        "name": "Mgr. Lucia Danihelová",
        "position": "vedúca správy registratúry",
        "phone": "02/208 36 411",
        "rank": 3
      }
    ]
  },
  {
    "name": "Okresná prokuratúra Bratislava V",
    "type": "district",
    "address": "Prokofievova 4",
    "zipcode": "851 01",
    "city": "Bratislava 5",
    "phone": "02/208 36 511, 02/208 36 500 - 502",
    "fax": "02/63 81 02 55",
    "email": "podatelna.opba5@genpro.gov.sk",
    "electronic_registry": "ico://sk/00166448",
    "registry": {
      "note": "Na základe rozhodnutia krajského prokurátora v Bratislave pre prijímanie podaní, ktoré sú urobené ústne do zápisnice na Krajskej prokuratúre Bratislava a okresných prokuratúrach v obvode jej pôsobnosti sa v rámci úradných hodín vymedzuje konkrétny čas od 09.00 h do 11.00 h.",
      "hours": {
        "friday": "8:00 – 15:00",
        "monday": "8:00 – 15:00",
        "tuesday": "8:00 – 15:00",
        "thursday": "8:00 – 15:00",
        "wednesday": "8:00 – 15:00"
      },
      "phone": null
    },
    "employees": [
      {
        "name": "JUDr. Eva Drgoňová",
        "position": "okresná prokurátorka",
        "phone": "02/208 36 511",
        "rank": 1
      },
      {
        "name": "JUDr. Viktor Laifer",
        "position": "námestník okresnej prokurátorky",
        "phone": "02/208 36 511",
        "rank": 2
      },
      {
        "name": "Mgr. Jarmila Poráziková",
        "position": "námestníčka okresnej prokurátorky",
        "phone": "02/208 36 511",
        "rank": 3
      },
      {
        "name": "Jana Schmögerová",
        "position": "vedúca správy registratúry",
        "phone": "02/208 36 511",
        "rank": 4
      }
    ]
  },
  {
    "name": "Okresná prokuratúra Brezno",
    "type": "district",
    "address": "Boženy Němcovej 3",
    "zipcode": "977 31",
    "city": "Brezno",
    "phone": "048/28 36 711",
    "fax": null,
    "email": "podatelna.opbr@genpro.gov.sk",
    "electronic_registry": "ico://sk/00166456",
    "registry": {
      "note": "Čas vymedzený pre prijímanie ústne urobených podaní do zápisnice na Krajskej prokuratúre Banská Bystrica a okresných prokuratúrach v obvode jej pôsobnosti od 9:00 h do 11:00 h a od 13:00 h do 14:30 h.",
      "hours": {
        "friday": "8:00 – 15:00",
        "monday": "8:00 – 15:00",
        "tuesday": "8:00 – 15:00",
        "thursday": "8:00 – 15:00",
        "wednesday": "8:00 – 15:00"
      },
      "phone": null
    },
    "employees": [
      {
        "name": "JUDr. Ľuboslav Čižmár",
        "position": "okresný prokurátor",
        "phone": "048/28 36 770",
        "rank": 1
      },
      {
        "name": "JUDr. Lukáš Horváth",
        "position": "námestník okresného prokurátora",
        "phone": "048/28 36 771",
        "rank": 2
      },
      {
        "name": "Mgr. Oľga Janegová",
        "position": "vedúca správy registratúry",
        "phone": "048/28 36 775",
        "rank": 3
      }
    ]
  },
  {
    "name": "Okresná prokuratúra Čadca",
    "type": "district",
    "address": "ul. 17. novembra 1567",
    "zipcode": "022 01",
    "city": "Čadca",
    "phone": "041/43 23 691",
    "fax": "041/43 22 779",
    "email": null,
    "electronic_registry": "ico://sk/35996072",
    "registry": {
      "note": "",
      "hours": {
        "friday": "7:00 – 14:30",
        "monday": "7:00 – 14:30",
        "tuesday": "7:00 – 14:30",
        "thursday": "7:00 – 14:30",
        "wednesday": "7:00 – 14:30"
      },
      "phone": null
    },
    "employees": [
      {
        "name": "Mgr. Miloš Kováč",
        "position": "okresný prokurátor",
        "phone": "041/43 22 395",
        "rank": 1
      },
      {
        "name": "Mgr. Janka Švaňová",
        "position": "námestníčka okresného prokurátora",
        "phone": "041/43 23 691",
        "rank": 2
      },
      {
        "name": "Jaroslava Hudecová",
        "position": "vedúca správy registratúry",
        "phone": "041/43 22 691",
        "rank": 3
      }
    ]
  },
  {
    "name": "Okresná prokuratúra Dolný Kubín",
    "type": "district",
    "address": "Radlinského 1713/36",
    "zipcode": "026 26",
    "city": "Dolný Kubín",
    "phone": "043/58 64 984, 043/58 64 985",
    "fax": "043/58 63 634",
    "email": "podatelna.opdk@genpro.gov.sk",
    "electronic_registry": "ico://sk/35996072",
    "registry": {
      "note": "",
      "hours": {
        "friday": "7:30 – 14:30",
        "monday": "7:30 – 14:30",
        "tuesday": "7:30 – 14:30",
        "thursday": "7:30 – 14:30",
        "wednesday": "7:30 – 14:30"
      },
      "phone": null
    },
    "employees": [
      {
        "name": "Mgr. Peter Michalík",
        "position": "okresný prokurátor",
        "phone": "043/58 62 757",
        "rank": 1
      },
      {
        "name": "Mgr. Martin Machaj",
        "position": "námestník okresného prokurátora",
        "phone": "043/55 06 111",
        "rank": 2
      },
      {
        "name": "Vladimíra Chomisteková",
        "position": "vedúca správy registratúry",
        "phone": "043/55 06 120",
        "rank": 3
      }
    ]
  },
  {
    "name": "Okresná prokuratúra Dunajská Streda",
    "type": "district",
    "address": "Nám. sv. Štefana 1",
    "zipcode": "929 21",
    "city": "Dunajská Streda 1",
    "phone": "031/55 22 494",
    "fax": "031/55 25 494",
    "email": "podatelna.opds@genpro.gov.sk",
    "electronic_registry": "ico://sk/35629053",
    "registry": {
      "note": "",
      "hours": {
        "friday": "8:00 – 15:00",
        "monday": "8:00 – 15:00",
        "tuesday": "8:00 – 15:00",
        "thursday": "8:00 – 15:00",
        "wednesday": "8:00 – 15:00"
      },
      "phone": null
    },
    "employees": [
      {
        "name": "JUDr. Beatrix Jakubovičová",
        "position": "okresná prokurátorka",
        "phone": "031/59 11 702",
        "rank": 1
      },
      {
        "name": "Mgr. Marián Jančár",
        "position": "námestník okresnej prokurátorky",
        "phone": "031/59 11 708",
        "rank": 2
      },
      {
        "name": "Mgr. Erik Holbík",
        "position": "námestník okresnej prokurátorky",
        "phone": "031/59 11 703",
        "rank": 3
      },
      {
        "name": "Linda Orosz",
        "position": "vedúca správy registratúry",
        "phone": "031/59 11 704",
        "rank": 4
      }
    ]
  },
  {
    "name": "Okresná prokuratúra Galanta",
    "type": "district",
    "address": "Hlavná ulica 987/25",
    "zipcode": "924 29",
    "city": "Galanta 1",
    "phone": "031/78 02 348, 031/78 03 053",
    "fax": "031/78 05 267",
    "email": "podatelna.opga@genpro.gov.sk",
    "electronic_registry": "ico://sk/35629053",
    "registry": {
      "note": "",
      "hours": {
        "friday": "8:00 – 15:00",
        "monday": "8:00 – 15:00",
        "tuesday": "8:00 – 15:00",
        "thursday": "8:00 – 15:00",
        "wednesday": "8:00 – 15:00"
      },
      "phone": null
    },
    "employees": [
      {
        "name": "JUDr. Samuel Bežo",
        "position": "okresný prokurátor",
        "phone": "031/78 02 348",
        "rank": 1
      },
      {
        "name": "JUDr.  Denisa Michalovič, PhD.",
        "position": "námestníčka okresného prokurátora",
        "phone": "031/78 02 348",
        "rank": 2
      },
      {
        "name": "JUDr. Marek Čirč",
        "position": "námestník okresného prokurátora",
        "phone": "031/78 02 348",
        "rank": 3
      },
      {
        "name": "Jana Bajzová",
        "position": "vedúca správy registratúry",
        "phone": "031/78 02 348",
        "rank": 4
      }
    ]
  },
  {
    "name": "Okresná prokuratúra Humenné",
    "type": "district",
    "address": "Štefánikova 1900/69",
    "zipcode": "066 42",
    "city": "Humenné 1",
    "phone": "057/28 36 111, 057/77 52 437",
    "fax": "057/77 55 953",
    "email": "podatelna.ophe@genpro.gov.sk",
    "electronic_registry": "ico://sk/17069807",
    "registry": {
      "note": "",
      "hours": {
        "friday": "8:00 – 15:00",
        "monday": "8:00 – 15:00",
        "tuesday": "8:00 – 15:00",
        "thursday": "8:00 – 15:00",
        "wednesday": "8:00 – 15:00"
      },
      "phone": null
    },
    "employees": [
      {
        "name": "JUDr. Viliam Loda",
        "position": "okresný prokurátor",
        "phone": "057/77 53 437",
        "rank": 1
      },
      {
        "name": "JUDr.  Martina Sivčová",
        "position": "námestníčka okresného prokurátora",
        "phone": "057/77 53 437",
        "rank": 2
      },
      {
        "name": "Mgr. Jana Holíková",
        "position": "vedúca správy registratúry",
        "phone": "057/77 52 437",
        "rank": 3
      }
    ]
  },
  {
    "name": "Okresná prokuratúra Kežmarok",
    "type": "district",
    "address": "Michalská 2493/8A",
    "zipcode": "060 01",
    "city": "Kežmarok",
    "phone": "052/45 25 115",
    "fax": "052/45 25 150",
    "email": "podatelna.opkk@genpro.gov.sk",
    "electronic_registry": "ico://sk/17069807",
    "registry": {
      "note": "",
      "hours": {
        "friday": "8:00 – 15:00",
        "monday": "8:00 – 15:00",
        "tuesday": "8:00 – 15:00",
        "thursday": "8:00 – 15:00",
        "wednesday": "8:00 – 15:00"
      },
      "phone": null
    },
    "employees": [
      {
        "name": "JUDr. Jana Mitníková",
        "position": "okresná prokurátorka",
        "phone": "052/45 25 150",
        "rank": 1
      },
      {
        "name": "JUDr. Ondrej Švagerko",
        "position": "námestník okresnej prokurátorky",
        "phone": "052/45 25 115",
        "rank": 2
      },
      {
        "name": "Viera Pristašová",
        "position": "vedúca správy registratúry",
        "phone": "052/45 25 115",
        "rank": 3
      }
    ]
  },
  {
    "name": "Okresná prokuratúra Komárno",
    "type": "district",
    "address": "Pohraničná 6",
    "zipcode": "945 28",
    "city": "Komárno",
    "phone": "035/77 01 729",
    "fax": "035/77 01 737",
    "email": "podatelna.opkn@genpro.gov.sk",
    "electronic_registry": "ico://sk/35629061",
    "registry": {
      "note": "",
      "hours": {
        "friday": "7:30 – 15:00",
        "monday": "7:30 – 15:00",
        "tuesday": "7:30 – 15:00",
        "thursday": "7:30 – 15:00",
        "wednesday": "7:30 – 15:00"
      },
      "phone": null
    },
    "employees": [
      {
        "name": "JUDr. Ľudmila Moľová",
        "position": "okresná prokurátorka",
        "phone": "035/77 01 729",
        "rank": 1
      },
      {
        "name": "Mgr. Róbert Škulavík",
        "position": " námestník okresnej prokurátorky",
        "phone": "035/77 01 729",
        "rank": 2
      },
      {
        "name": "Veronika Holotová",
        "position": "vedúca správy registratúry",
        "phone": "035/77 01 729",
        "rank": 3
      }
    ]
  },
  {
    "name": "Okresná prokuratúra Košice I",
    "type": "district",
    "address": "Mojmírova 5",
    "zipcode": "04147",
    "city": "Košice",
    "phone": "055/68 16 111",
    "fax": "055/68 16 394",
    "email": "podatelna.opke1@genpro.gov.sk",
    "electronic_registry": "ico://sk/00166464",
    "registry": {
      "note": "",
      "hours": {
        "friday": "8:00 – 15:00",
        "monday": "8:00 – 15:00",
        "tuesday": "8:00 – 15:00",
        "thursday": "8:00 – 15:00",
        "wednesday": "8:00 – 15:00"
      },
      "phone": null
    },
    "employees": [
      {
        "name": "JUDr. Jozef Sonderlich",
        "position": "okresný prokurátor",
        "phone": "055/68 16 370",
        "rank": 1
      },
      {
        "name": "JUDr. Ľuboš Kmec",
        "position": "námestník okresného prokurátora",
        "phone": "055/68 16 307",
        "rank": 2
      },
      {
        "name": "JUDr. Roman Sopoliga",
        "position": "námestník okresného prokurátora",
        "phone": "055/68 16 379",
        "rank": 3
      },
      {
        "name": "Mgr. Jana Sušková",
        "position": "vedúca správy registratúry",
        "phone": "055/68 16 339",
        "rank": 4
      }
    ]
  },
  {
    "name": "Okresná prokuratúra Košice II",
    "type": "district",
    "address": "Štúrova 5",
    "zipcode": "040 46",
    "city": "Košice",
    "phone": "055/68 16 111",
    "fax": "055/68 16 303",
    "email": "podatelna.opke2@genpro.gov.sk",
    "electronic_registry": "ico://sk/00166464",
    "registry": {
      "note": "",
      "hours": {
        "friday": "8:00 – 15:00",
        "monday": "8:00 – 15:00",
        "tuesday": "8:00 – 15:00",
        "thursday": "8:00 – 15:00",
        "wednesday": "8:00 – 15:00"
      },
      "phone": null
    },
    "employees": [
      {
        "name": "Mgr. Alexander Kundrát",
        "position": "okresný prokurátor",
        "phone": "055/68 16 364",
        "rank": 1
      },
      {
        "name": "JUDr. Peter Jurko",
        "position": "námestník okresného prokurátora",
        "phone": "055/68 16 363",
        "rank": 2
      },
      {
        "name": "JUDr. Richard Priester",
        "position": "námestník okresného prokurátora",
        "phone": "055/68 16 304",
        "rank": 3
      },
      {
        "name": "Valéria Rozbrójová",
        "position": "vedúca správy registratúry",
        "phone": "055/68 16 280",
        "rank": 4
      }
    ]
  },
  {
    "name": "Okresná prokuratúra Košice - okolie",
    "type": "district",
    "address": "Mojmírova 5",
    "zipcode": "040 38",
    "city": "Košice",
    "phone": "055/68 16 111",
    "fax": "055/68 16 286",
    "email": "podatelna.opks@genpro.gov.sk",
    "electronic_registry": "ico://sk/00166464",
    "registry": {
      "note": "",
      "hours": {
        "friday": "8:00 – 15:00",
        "monday": "8:00 – 15:00",
        "tuesday": "8:00 – 15:00",
        "thursday": "8:00 – 15:00",
        "wednesday": "8:00 – 15:00"
      },
      "phone": null
    },
    "employees": [
      {
        "name": "JUDr. Marek Rajnič, PhD. MBA",
        "position": "okresný prokurátor",
        "phone": "055/68 16 357",
        "rank": 1
      },
      {
        "name": "JUDr. Dagmar Vargová",
        "position": "námestníčka okresného prokurátora",
        "phone": "055/68 16 288",
        "rank": 2
      },
      {
        "name": "Ing. Mgr. Dušana Maindlová",
        "position": "vedúca správy registratúry",
        "phone": "055/68 16 373",
        "rank": 3
      }
    ]
  },
  {
    "name": "Okresná prokuratúra Levice",
    "type": "district",
    "address": "Šafárikova 7",
    "zipcode": "934 01",
    "city": "Levice",
    "phone": "036/63 12 411",
    "fax": "036/63 12 414",
    "email": "podatelna.oplv@genpro.gov.sk",
    "electronic_registry": "ico://sk/35629061",
    "registry": {
      "note": "",
      "hours": {
        "friday": "7:30 – 15:00",
        "monday": "7:30 – 15:00",
        "tuesday": "7:30 – 15:00",
        "thursday": "7:30 – 15:00",
        "wednesday": "7:30 – 15:00"
      },
      "phone": null
    },
    "employees": [
      {
        "name": "Mgr. Jana Grečnerová",
        "position": "okresná prokurátorka",
        "phone": "036/63 12 411",
        "rank": 1
      },
      {
        "name": "Mgr. Monika Mrázová",
        "position": "námestníčka okresnej prokurátorky",
        "phone": "036/63 12 411",
        "rank": 2
      },
      {
        "name": "Ing. Miroslava Šuníková",
        "position": "vedúca správy registratúry",
        "phone": "036/63 12 411",
        "rank": 3
      }
    ]
  },
  {
    "name": "Okresná prokuratúra Liptovský Mikuláš",
    "type": "district",
    "address": "Tomášikova 5",
    "zipcode": "031 80",
    "city": "Liptovský Mikuláš",
    "phone": "044/55 24 237",
    "fax": "044/55 22 935",
    "email": "podatelna.oplm@genpro.gov.sk",
    "electronic_registry": "ico://sk/35996072",
    "registry": {
      "note": "",
      "hours": {
        "friday": "7:00 – 14:30",
        "monday": "7:00 – 14:30",
        "tuesday": "7:00 – 14:30",
        "thursday": "7:00 – 14:30",
        "wednesday": "7:00 – 14:30"
      },
      "phone": null
    },
    "employees": [
      {
        "name": "JUDr. Marian Vagač",
        "position": "okresný prokurátor",
        "phone": "044/55 16 183",
        "rank": 1
      },
      {
        "name": "JUDr. Gabriela Švecová",
        "position": "námestníčka okresného prokurátora",
        "phone": "044/55 16 174",
        "rank": 2
      },
      {
        "name": "Jarmila Reibergerová",
        "position": "vedúca správy registratúry",
        "phone": "044/55 16 178",
        "rank": 3
      }
    ]
  },
  {
    "name": "Okresná prokuratúra Lučenec",
    "type": "district",
    "address": "F. Lehára 12",
    "zipcode": "984 80",
    "city": "Lučenec",
    "phone": "047/28 36 102",
    "fax": "047/28 36 116",
    "email": "podatelna.oplc@genpro.gov.sk",
    "electronic_registry": "ico://sk/00166456",
    "registry": {
      "note": "Čas vymedzený pre prijímanie ústne urobených podaní do zápisnice na Krajskej prokuratúre Banská Bystrica a okresných prokuratúrach v obvode jej pôsobnosti od 9:00 h do 11:00 h a od 13:00 h do 14:30 h.",
      "hours": {
        "friday": "8:00 – 15:00",
        "monday": "8:00 – 15:00",
        "tuesday": "8:00 – 15:00",
        "thursday": "8:00 – 15:00",
        "wednesday": "8:00 – 15:00"
      },
      "phone": null
    },
    "employees": [
      {
        "name": "JUDr. Matúš Sarvaš",
        "position": "okresný prokurátor",
        "phone": "047/28 36 173",
        "rank": 1
      },
      {
        "name": "JUDr. Jana Jurinová",
        "position": "námestníčka okresného prokurátora pre netrestný úsek",
        "phone": "047/28 36 172",
        "rank": 2
      },
      {
        "name": "JUDr. Adriána Vašková",
        "position": "námestníčka okresného prokurátora pre trestný úsek",
        "phone": "",
        "rank": 3
      },
      {
        "name": "JUDr. Elena Brusňaiová",
        "position": "vedúca správy registratúry",
        "phone": "047/28 36 175",
        "rank": 4
      }
    ]
  },
  {
    "name": "Okresná prokuratúra Malacky",
    "type": "district",
    "address": "P.O.BOX 41",
    "zipcode": "901 01",
    "city": "Malacky",
    "phone": "034/28 36 111",
    "fax": "034/77 31 075",
    "email": "podatelna.opma@genpro.gov.sk",
    "electronic_registry": "ico://sk/00166448",
    "registry": {
      "note": "Na základe rozhodnutia krajského prokurátora v Bratislave pre prijímanie podaní, ktoré sú urobené ústne do zápisnice na Krajskej prokuratúre Bratislava a okresných prokuratúrach v obvode jej pôsobnosti sa v rámci úradných hodín vymedzuje konkrétny čas od 09:00 h do 11:00 h.",
      "hours": {
        "friday": "8:00 – 15:00",
        "monday": "8:00 – 15:00",
        "tuesday": "8:00 – 15:00",
        "thursday": "8:00 – 15:00",
        "wednesday": "8:00 – 15:00"
      },
      "phone": null
    },
    "employees": [
      {
        "name": "JUDr. Beata Vítková",
        "position": "okresná prokurátorka",
        "phone": "034/28 36 111",
        "rank": 1
      },
      {
        "name": "Mgr. Matej Podmajerský, PhD.",
        "position": "námestník okresnej prokurátorky",
        "phone": "034/28 36 111",
        "rank": 2
      },
      {
        "name": "Mgr. Vladimíra Sojáková",
        "position": "vedúca správy registratúry",
        "phone": "034/28 36 111",
        "rank": 3
      }
    ]
  },
  {
    "name": "Okresná prokuratúra Martin",
    "type": "district",
    "address": "Vajanského námestie 1",
    "zipcode": "036 80",
    "city": "Martin",
    "phone": "043/42 12 450, 043/41 32 087",
    "fax": "043/41 33 216",
    "email": "podatelna.opmt@genpro.gov.sk",
    "electronic_registry": "ico://sk/35996072",
    "registry": {
      "note": "",
      "hours": {
        "friday": "7:00 – 15:00",
        "monday": "7:00 – 15:00",
        "tuesday": "7:00 – 15:00",
        "thursday": "7:00 – 15:00",
        "wednesday": "7:00 – 15:00"
      },
      "phone": null
    },
    "employees": [
      {
        "name": "JUDr. Mária Štupáková",
        "position": "okresná prokurátorka",
        "phone": "043/42 12 472",
        "rank": 1
      },
      {
        "name": "JUDr. Marián Ťažiar",
        "position": "námestník okresnej prokurátorky pre trestný úsek",
        "phone": "043/42 12 451",
        "rank": 2
      },
      {
        "name": "Mgr. Jana Turanová",
        "position": "námestníčka okresnej prokurátorky pre netrestný úsek",
        "phone": "043/42 12 454",
        "rank": 3
      },
      {
        "name": "Iveta Martinková",
        "position": "vedúca správy registratúry",
        "phone": "043/42 12 471",
        "rank": 4
      }
    ]
  },
  {
    "name": "Okresná prokuratúra Michalovce",
    "type": "district",
    "address": "Námestie slobody 3",
    "zipcode": "071 01",
    "city": "Michalovce",
    "phone": "056/68 700 11",
    "fax": "056/64 313 64",
    "email": "podatelna.opmi@genpro.gov.sk",
    "electronic_registry": "ico://sk/00166464",
    "registry": {
      "note": "",
      "hours": {
        "friday": "8:00 – 15:00",
        "monday": "8:00 – 15:00",
        "tuesday": "8:00 – 15:00",
        "thursday": "8:00 – 15:00",
        "wednesday": "8:00 – 15:00"
      },
      "phone": null
    },
    "employees": [
      {
        "name": "JUDr. Iveta Šándorová",
        "position": "okresná prokurátorka",
        "phone": "056/68 700 15",
        "rank": 1
      },
      {
        "name": "JUDr. Martin Kovalík",
        "position": "námestník okresnej prokurátorky",
        "phone": "056/68 700 16",
        "rank": 2
      },
      {
        "name": "JUDr. Ján Jozef",
        "position": "námestník okresnej prokurátorky",
        "phone": "056/68 700 18",
        "rank": 3
      },
      {
        "name": "Bc. Jarmila Drahňovská",
        "position": "vedúca správy registratúry",
        "phone": "056/68 700 20",
        "rank": 4
      }
    ]
  },
  {
    "name": "Okresná prokuratúra Námestovo",
    "type": "district",
    "address": "Hviezdoslavovo námestie 213",
    "zipcode": "02901",
    "city": "Námestovo",
    "phone": "043/55 06 811",
    "fax": "043/55 06 820",
    "email": "podatelna.opno@genpro.gov.sk",
    "electronic_registry": "ico://sk/35996072",
    "registry": {
      "note": "",
      "hours": {
        "friday": "7:30 – 14:30",
        "monday": "7:30 – 14:30",
        "tuesday": "7:30 – 14:30",
        "thursday": "7:30 – 14:30",
        "wednesday": "7:30 – 14:30"
      },
      "phone": null
    },
    "employees": [
      {
        "name": "JUDr. Jaroslav Kocúr",
        "position": "okresný prokurátor",
        "phone": "043/55 06 820",
        "rank": 1
      },
      {
        "name": "Mgr. Vladimír Martinovič",
        "position": "námestník okresného prokurátora",
        "phone": "043/55 06 820",
        "rank": 2
      },
      {
        "name": "Helena Lachmanová",
        "position": "vedúca správy registratúry",
        "phone": "043/55 06 821",
        "rank": 3
      }
    ]
  },
  {
    "name": "Okresná prokuratúra Nitra",
    "type": "district",
    "address": "Damborského 1",
    "zipcode": "949 99",
    "city": "Nitra",
    "phone": "037/65 22 730",
    "fax": "037/65 22 723",
    "email": "podatelna.opnr@genpro.gov.sk",
    "electronic_registry": "ico://sk/35629061",
    "registry": {
      "note": "",
      "hours": {
        "friday": "7:30 – 15:00",
        "monday": "7:30 – 15:00",
        "tuesday": "7:30 – 15:00",
        "thursday": "7:30 – 15:00",
        "wednesday": "7:30 – 15:00"
      },
      "phone": null
    },
    "employees": [
      {
        "name": "JUDr. Martina Ludvová Jakubíková, PhD.",
        "position": "okresná prokurátorka",
        "phone": "037/65 22 724",
        "rank": 1
      },
      {
        "name": "JUDr. Monika Bálešová",
        "position": "námestníčka okresnej prokurátorky pre netrestný úsek",
        "phone": "037/65 22 730",
        "rank": 2
      },
      {
        "name": "JUDr. Richard Ferenczy",
        "position": "námestník okresnej prokurátorky pre trestný úsek",
        "phone": "037/65 22 730",
        "rank": 3
      },
      {
        "name": "Ingrid Čentéšová",
        "position": "vedúca správy registratúry",
        "phone": "037/65 22 730",
        "rank": 4
      }
    ]
  },
  {
    "name": "Okresná prokuratúra Nové Mesto nad Váhom",
    "type": "district",
    "address": "Hviezdoslavova 36",
    "zipcode": "915 01",
    "city": "Nové Mesto nad Váhom",
    "phone": "032/77 16751",
    "fax": "032/77 16 750",
    "email": "podatelna.opnm@genpro.gov.sk",
    "electronic_registry": "ico://sk/35629045",
    "registry": {
      "note": "",
      "hours": {
        "friday": "7:00 – 15:00",
        "monday": "7:00 – 15:00",
        "tuesday": "7:00 – 15:00",
        "thursday": "7:00 – 15:00",
        "wednesday": "7:00 – 15:00"
      },
      "phone": null
    },
    "employees": [
      {
        "name": "Mgr. Katarína Zeleňáková",
        "position": "okresná prokurátorka",
        "phone": "032/74 089 10",
        "rank": 1
      },
      {
        "name": "JUDr. Gabriela Mezovská",
        "position": "námestníčka okresnej prokurátorky",
        "phone": "032/74 089 17",
        "rank": 2
      },
      {
        "name": "Martina Malíčková",
        "position": "vedúca správy registratúry",
        "phone": "032/74 089 11",
        "rank": 3
      }
    ]
  },
  {
    "name": "Okresná prokuratúra Nové Zámky",
    "type": "district",
    "address": "Radničná ulica č. 3",
    "zipcode": "940 02",
    "city": "Nové Zámky",
    "phone": "035/64 00 383",
    "fax": "035/ 64 00 392",
    "email": "podatelna.opnz@genpro.gov.sk",
    "electronic_registry": "ico://sk/35629061",
    "registry": {
      "note": "",
      "hours": {
        "friday": "7:30 – 15:00",
        "monday": "7:30 – 15:00",
        "tuesday": "7:30 – 15:00",
        "thursday": "7:30 – 15:00",
        "wednesday": "7:30 – 15:00"
      },
      "phone": null
    },
    "employees": [
      {
        "name": "JUDr. Monika Milevová",
        "position": "poverená výkonom funkcie okresnej prokurátorky",
        "phone": "035/64 00 398",
        "rank": 1
      },
      {
        "name": "Mgr. Lejla Bieliková",
        "position": "námestníčka okresnej prokurátorky",
        "phone": "035/64 00 383",
        "rank": 2
      },
      {
        "name": "JUDr. Róbert Rudinský",
        "position": "poverený výkonom funkcie námestníka okresnej prokurátorky ",
        "phone": "035/64 00 383",
        "rank": 3
      },
      {
        "name": "Mgr. Alžbeta Škvárová",
        "position": "vedúca správy registratúry",
        "phone": "035/64 00 383",
        "rank": 4
      }
    ]
  },
  {
    "name": "Okresná prokuratúra Partizánske",
    "type": "district",
    "address": "Februárová 157",
    "zipcode": "958 01",
    "city": "Partizánske",
    "phone": "038/76 29 911",
    "fax": "038/53 13 552",
    "email": "podatelna.oppe@genpro.gov.sk",
    "electronic_registry": "ico://sk/35629045",
    "registry": {
      "note": "",
      "hours": {
        "friday": "7:00 – 15:00",
        "monday": "7:00 – 15:00",
        "tuesday": "7:00 – 15:00",
        "thursday": "7:00 – 15:00",
        "wednesday": "7:00 – 15:00"
      },
      "phone": null
    },
    "employees": [
      {
        "name": "JUDr. Štefan Masár",
        "position": "okresný prokurátor",
        "phone": "038/76 299 17",
        "rank": 1
      },
      {
        "name": "JUDr. Martin Števík",
        "position": "námestník okresného prokurátora",
        "phone": "038/76 299 15",
        "rank": 2
      },
      {
        "name": "Eva Sládková",
        "position": "vedúca správy registratúry",
        "phone": "038/76 299 12",
        "rank": 3
      }
    ]
  },
  {
    "name": "Okresná prokuratúra Pezinok",
    "type": "district",
    "address": "Šenkvická cesta 5",
    "zipcode": "902 01",
    "city": "Pezinok",
    "phone": "033/28 36 111-113",
    "fax": "033/64 06 493",
    "email": "podatelna.oppk@genpro.gov.sk",
    "electronic_registry": "ico://sk/00166448",
    "registry": {
      "note": "Na základe rozhodnutia krajského prokurátora v Bratislave pre prijímanie podaní, ktoré sú urobené ústne do zápisnice na Krajskej prokuratúre Bratislava a okresných prokuratúrach v obvode jej pôsobnosti sa v rámci úradných hodín vymedzuje konkrétny čas od 09:00 h do 11:00 h.",
      "hours": {
        "friday": "8:00 – 15:00",
        "monday": "8:00 – 15:00",
        "tuesday": "8:00 – 15:00",
        "thursday": "8:00 – 15:00",
        "wednesday": "8:00 – 15:00"
      },
      "phone": null
    },
    "employees": [
      {
        "name": "JUDr. Miroslav Mihal",
        "position": "okresný prokurátor",
        "phone": "033/28 36 111",
        "rank": 1
      },
      {
        "name": "Mgr. Silvia Kollárová",
        "position": "námestníčka okresného prokurátora",
        "phone": "033/28 36 111",
        "rank": 2
      },
      {
        "name": "Bc. Daniela Pavlíková",
        "position": "vedúca správy registratúry",
        "phone": "033/28 36 111",
        "rank": 3
      }
    ]
  },
  {
    "name": "Okresná prokuratúra Piešťany",
    "type": "district",
    "address": "Vážska 28",
    "zipcode": "921 01",
    "city": "Piešťany",
    "phone": "033/77 29 328",
    "fax": "033/73 30 516",
    "email": "podatelna.oppn@genpro.gov.sk",
    "electronic_registry": "ico://sk/35629053",
    "registry": {
      "note": "",
      "hours": {
        "friday": "8:00 – 15:00",
        "monday": "8:00 – 15:00",
        "tuesday": "8:00 – 15:00",
        "thursday": "8:00 – 15:00",
        "wednesday": "8:00 – 15:00"
      },
      "phone": null
    },
    "employees": [
      {
        "name": "JUDr. Martin Javorka",
        "position": "okresný prokurátor",
        "phone": "033/77 29 328",
        "rank": 1
      },
      {
        "name": "JUDr. Ondrej Prikryl, PhD.",
        "position": "námestník okresného prokurátora",
        "phone": "033/77 29 328",
        "rank": 2
      },
      {
        "name": "Ivona Mihalíková",
        "position": "vedúca správy registratúry",
        "phone": "033/77 29 328",
        "rank": 3
      }
    ]
  },
  {
    "name": "Okresná prokuratúra Poprad",
    "type": "district",
    "address": "Mnoheľova 833/26",
    "zipcode": "058 01",
    "city": "Poprad",
    "phone": "052/77 21 847",
    "fax": "052/77 21 859",
    "email": "podatelna.oppp@genpro.gov.sk",
    "electronic_registry": "ico://sk/17069807",
    "registry": {
      "note": "",
      "hours": {
        "friday": "8:00 – 15:00",
        "monday": "8:00 – 15:00",
        "tuesday": "8:00 – 15:00",
        "thursday": "8:00 – 15:00",
        "wednesday": "8:00 – 15:00"
      },
      "phone": null
    },
    "employees": [
      {
        "name": "JUDr. Ján Škovránko",
        "position": "okresný prokurátor",
        "phone": "052/77 21 589",
        "rank": 1
      },
      {
        "name": "JUDr. Viktor Švirk",
        "position": "poverený výkonom funkcie námestníka okresného prokurátora",
        "phone": "052/77 21 847",
        "rank": 2
      },
      {
        "name": "JUDr. Martin Mišenčík",
        "position": "námestník okresného prokurátora",
        "phone": "052/77 21 847",
        "rank": 3
      },
      {
        "name": "Mgr. Andrea Macková",
        "position": "vedúca správy registratúry",
        "phone": "052/28 36 211",
        "rank": 4
      }
    ]
  },
  {
    "name": "Okresná prokuratúra Považská Bystrica",
    "type": "district",
    "address": "Ľ. Štúra 1",
    "zipcode": "017 01",
    "city": "Považská Bystrica",
    "phone": "042/43 25 881",
    "fax": "042/43 26 491",
    "email": "podatelna.oppb@genpro.gov.sk",
    "electronic_registry": "ico://sk/35629045",
    "registry": {
      "note": "",
      "hours": {
        "friday": "7:00 – 15:00",
        "monday": "7:00 – 15:00",
        "tuesday": "7:00 – 15:00",
        "thursday": "7:00 – 15:00",
        "wednesday": "7:00 – 15:00"
      },
      "phone": null
    },
    "employees": [
      {
        "name": "Mgr. Eva Pirošová",
        "position": "okresná prokurátorka",
        "phone": "042/43 144 12",
        "rank": 1
      },
      {
        "name": "Mgr. Peter Horváth",
        "position": "námestník okresnej prokurátorky",
        "phone": "042/43 144 13",
        "rank": 2
      },
      {
        "name": "Bc. Renáta Dudáková",
        "position": "vedúca správy registratúry",
        "phone": "042/43 144 14",
        "rank": 3
      }
    ]
  },
  {
    "name": "Okresná prokuratúra Prešov",
    "type": "district",
    "address": "Masarykova 16",
    "zipcode": "080 01",
    "city": "Prešov 1",
    "phone": "051/77 25 326, 051/77 31 159",
    "fax": "051/77 24 758",
    "email": "podatelna.oppo@genpro.gov.sk",
    "electronic_registry": "ico://sk/17069807",
    "registry": {
      "note": "",
      "hours": {
        "friday": "8:00 – 15:00",
        "monday": "8:00 – 15:00",
        "tuesday": "8:00 – 15:00",
        "thursday": "8:00 – 15:00",
        "wednesday": "8:00 – 15:00"
      },
      "phone": null
    },
    "employees": [
      {
        "name": "JUDr.  Juraj Oravec",
        "position": "okresný prokurátor",
        "phone": "051/77 31 159",
        "rank": 1
      },
      {
        "name": "JUDr. Miroslava Mikušová",
        "position": "námestníčka okresného prokurátora",
        "phone": "051/77 31 159",
        "rank": 2
      },
      {
        "name": "JUDr. Ing. Miriama Birčáková",
        "position": "námestníčka okresného prokurátora",
        "phone": "051/77 31 159",
        "rank": 3
      },
      {
        "name": "Bc. Monika Cenkerová Palková",
        "position": "vedúca správy registratúry",
        "phone": "051/77 31 159",
        "rank": 4
      }
    ]
  },
  {
    "name": "Okresná prokuratúra Prievidza",
    "type": "district",
    "address": "M. Mišíka 22",
    "zipcode": "971 34",
    "city": "Prievidza 1",
    "phone": "046/51 83 910",
    "fax": "046/54 22 863",
    "email": "podatelna.opPD@genpro.gov.sk",
    "electronic_registry": "ico://sk/35629045",
    "registry": {
      "note": "",
      "hours": {
        "friday": "7:00 – 15:00",
        "monday": "7:00 – 15:00",
        "tuesday": "7:00 – 15:00",
        "thursday": "7:00 – 15:00",
        "wednesday": "7:00 – 15:00"
      },
      "phone": null
    },
    "employees": [
      {
        "name": "Mgr. Ľubomír Sány",
        "position": "okresný prokurátor",
        "phone": "046/51 839 28",
        "rank": 1
      },
      {
        "name": "JUDr. Tomáš Trela",
        "position": "námestník okresného prokurátora",
        "phone": "046/51 839 23",
        "rank": 2
      },
      {
        "name": "Andrea Kaplánová",
        "position": "vedúca správy registratúry",
        "phone": "046/51 839 16",
        "rank": 3
      }
    ]
  },
  {
    "name": "Okresná prokuratúra Revúca",
    "type": "district",
    "address": "Ul. J. Kordoša 1370/1A",
    "zipcode": "050 01",
    "city": "Revúca",
    "phone": "058/28 36 111",
    "fax": "058/28 36 116",
    "email": "podatelna.opra@genpro.gov.sk",
    "electronic_registry": "ico://sk/00166456",
    "registry": {
      "note": "",
      "hours": {
        "friday": "8:00 – 15:00",
        "monday": "8:00 – 15:00",
        "tuesday": "8:00 – 15:00",
        "thursday": "8:00 – 15:00",
        "wednesday": "8:00 – 15:00"
      },
      "phone": null
    },
    "employees": [
      {
        "name": "JUDr. Pavol Koreň",
        "position": "okresný prokurátor",
        "phone": "058/28 36 173",
        "rank": 1
      },
      {
        "name": "JUDr. Daniel Prč",
        "position": "námestník okresného prokurátora",
        "phone": "058/28 36 171",
        "rank": 2
      },
      {
        "name": "Mgr. Magdaléna Majkúthová",
        "position": "vedúca správy registratúry",
        "phone": "058/28 36 175",
        "rank": 3
      }
    ]
  },
  {
    "name": "Okresná prokuratúra Rimavská Sobota",
    "type": "district",
    "address": "Jesenského 1",
    "zipcode": "979 01",
    "city": "Rimavská Sobota",
    "phone": "047/28 36 200-1",
    "fax": "047/28 36 263",
    "email": "podatelna.oprs@genpro.gov.sk",
    "electronic_registry": "ico://sk/00166456",
    "registry": {
      "note": "Čas vymedzený pre prijímanie ústne urobených podaní do zápisnice na Krajskej prokuratúre Banská Bystrica a okresných prokuratúrach v obvode jej pôsobnosti od 9:00 h do 11:00 h a od 13:00 h do 14:30 h.",
      "hours": {
        "friday": "8:00 – 15:00",
        "monday": "8:00 – 15:00",
        "tuesday": "8:00 – 15:00",
        "thursday": "8:00 – 15:00",
        "wednesday": "8:00 – 15:00"
      },
      "phone": null
    },
    "employees": [
      {
        "name": "JUDr. Slavomír Šamin",
        "position": "okresný prokurátor",
        "phone": "047/28 36 270",
        "rank": 1
      },
      {
        "name": "Mgr. Ján Balang",
        "position": "námestník okresného prokurátora",
        "phone": "047/28 36 271",
        "rank": 2
      },
      {
        "name": "Bc. Eva Imreczeová",
        "position": "vedúca správy registratúry",
        "phone": "047/28 36 275",
        "rank": 3
      }
    ]
  },
  {
    "name": "Okresná prokuratúra Rožňava",
    "type": "district",
    "address": "Námestie 1. mája 11",
    "zipcode": "048 01",
    "city": "Rožňava",
    "phone": "058/78 773 11",
    "fax": "058/73 447 44",
    "email": "podatelna.oprv@genpro.gov.sk",
    "electronic_registry": "ico://sk/00166464",
    "registry": {
      "note": "",
      "hours": {
        "friday": "8:00 – 15:00",
        "monday": "8:00 – 15:00",
        "tuesday": "8:00 – 15:00",
        "thursday": "8:00 – 15:00",
        "wednesday": "8:00 – 15:00"
      },
      "phone": null
    },
    "employees": [
      {
        "name": "JUDr. Jaroslava Šaminová",
        "position": "okresná prokurátorka",
        "phone": "058/78 773 20",
        "rank": 1
      },
      {
        "name": "JUDr. Peter Gallo",
        "position": "námestník okresnej prokurátorky",
        "phone": "058/78 773 15",
        "rank": 2
      },
      {
        "name": "Mgr. Monika Polgáriová",
        "position": "vedúca správy registratúry",
        "phone": "058/78 773 14",
        "rank": 3
      }
    ]
  },
  {
    "name": "Okresná prokuratúra Ružomberok",
    "type": "district",
    "address": "Dončova 8",
    "zipcode": "034 53",
    "city": "Ružomberok",
    "phone": "044/43 27 472, 044/43 14 927",
    "fax": "044/43 27 477",
    "email": "podatelna.oprk@genpro.gov.sk",
    "electronic_registry": "ico://sk/35996072",
    "registry": {
      "note": "",
      "hours": {
        "friday": "8:00 – 15:00",
        "monday": "8:00 – 15:00",
        "tuesday": "8:00 – 15:00",
        "thursday": "8:00 – 15:00",
        "wednesday": "8:00 – 15:00"
      },
      "phone": null
    },
    "employees": [
      {
        "name": "JUDr. Štefan Tomaško",
        "position": "okresný prokurátor",
        "phone": "044/43 14 926",
        "rank": 1
      },
      {
        "name": "JUDr. Elena Makovická",
        "position": "námestníčka okresného prokurátora",
        "phone": "044/43 14 925",
        "rank": 2
      },
      {
        "name": "Jana Klocková",
        "position": "vedúca správy registratúry",
        "phone": "044/43 14 927",
        "rank": 3
      }
    ]
  },
  {
    "name": "Okresná prokuratúra Senica",
    "type": "district",
    "address": "Ulica Janka Kráľa 735",
    "zipcode": "905 45",
    "city": "Senica",
    "phone": "034/65 15 051-52",
    "fax": "034/65 15 157",
    "email": "podatelna.opse@genpro.gov.sk",
    "electronic_registry": "ico://sk/35629053",
    "registry": {
      "note": "",
      "hours": {
        "friday": "8:00 – 15:00",
        "monday": "8:00 – 15:00",
        "tuesday": "8:00 – 15:00",
        "thursday": "8:00 – 15:00",
        "wednesday": "8:00 – 15:00"
      },
      "phone": null
    },
    "employees": [
      {
        "name": "JUDr.  Iveta Vyskočová",
        "position": "okresná prokurátorka",
        "phone": "034/65 14 362",
        "rank": 1
      },
      {
        "name": "Mgr. Jaroslava Regásková",
        "position": "námestníčka okresnej prokurátorky",
        "phone": "034/65 15 051",
        "rank": 2
      },
      {
        "name": "Jana Mihalovičová",
        "position": "vedúca správy registratúry",
        "phone": "034/65 15 052",
        "rank": 3
      }
    ]
  },
  {
    "name": "Okresná prokuratúra Skalica",
    "type": "district",
    "address": "Ružová 2",
    "zipcode": "909 01",
    "city": "Skalica",
    "phone": "034/69 99 451",
    "fax": "034/69 99 450",
    "email": "podatelna.opsi@genpro.gov.sk",
    "electronic_registry": "ico://sk/35629053",
    "registry": {
      "note": "",
      "hours": {
        "friday": "8:00 – 15:00",
        "monday": "8:00 – 15:00",
        "tuesday": "8:00 – 15:00",
        "thursday": "8:00 – 15:00",
        "wednesday": "8:00 – 15:00"
      },
      "phone": null
    },
    "employees": [
      {
        "name": "JUDr. Oľga Bakičová",
        "position": "okresná prokurátorka",
        "phone": "034/69 99 454",
        "rank": 1
      },
      {
        "name": "JUDr. Ing. Timotej Baďo, PhD.",
        "position": "námestník okresnej prokurátorky",
        "phone": "034/69 99 455",
        "rank": 2
      },
      {
        "name": "Ing. Bc. Renáta Štepanovská",
        "position": "vedúca správy registratúry",
        "phone": "034/69 99 457",
        "rank": 3
      }
    ]
  },
  {
    "name": "Okresná prokuratúra Spišská Nová Ves",
    "type": "district",
    "address": "Elektrárenská 1",
    "zipcode": "052 26",
    "city": "Spišská Nová Ves",
    "phone": "053/44 627 48",
    "fax": "053/44 662 86",
    "email": "podatelna.opsn@genpro.gov.sk",
    "electronic_registry": "ico://sk/00166464",
    "registry": {
      "note": "",
      "hours": {
        "friday": "8:00 – 15:00",
        "monday": "8:00 – 15:00",
        "tuesday": "8:00 – 15:00",
        "thursday": "8:00 – 15:00",
        "wednesday": "8:00 – 15:00"
      },
      "phone": null
    },
    "employees": [
      {
        "name": "JUDr. Branislav Kročian",
        "position": "okresný prokurátor",
        "phone": "053/44 627 48",
        "rank": 1
      },
      {
        "name": "JUDr. Peter Garčala",
        "position": "námestník okresného prokurátora",
        "phone": "053/44 627 48",
        "rank": 2
      },
      {
        "name": "JUDr. Michaela Takáčová",
        "position": "námestníčka okresného prokurátora",
        "phone": "053/44 627 48",
        "rank": 3
      },
      {
        "name": "Mgr. Zuzana Barillová",
        "position": "vedúca správy registratúry",
        "phone": "053/44 627 48",
        "rank": 4
      }
    ]
  },
  {
    "name": "Okresná prokuratúra Stará Ľubovňa",
    "type": "district",
    "address": "Obrancov mieru 18",
    "zipcode": "064 01",
    "city": "Stará Ľubovňa",
    "phone": "052/28 36 311, 052/43 21 251",
    "fax": "052/43 23 394",
    "email": "podatelna.opsl@genpro.gov.sk",
    "electronic_registry": "ico://sk/17069807",
    "registry": {
      "note": "",
      "hours": {
        "friday": "8:00 – 15:00",
        "monday": "8:00 – 15:00",
        "tuesday": "8:00 – 15:00",
        "thursday": "8:00 – 15:00",
        "wednesday": "8:00 – 15:00"
      },
      "phone": null
    },
    "employees": [
      {
        "name": "JUDr. Marek Čižmár",
        "position": "okresný prokurátor",
        "phone": "052/43 23 623",
        "rank": 1
      },
      {
        "name": "JUDr. Monika Pánisová",
        "position": "námestníčka okresného prokurátora",
        "phone": "052/43 21 251",
        "rank": 2
      },
      {
        "name": "Mária Reľovská",
        "position": "vedúca správy registratúry",
        "phone": "052/43 21 251",
        "rank": 3
      }
    ]
  },
  {
    "name": "Okresná prokuratúra Svidník",
    "type": "district",
    "address": "Sovietskych hrdinov 200",
    "zipcode": "089 01",
    "city": "Svidník",
    "phone": "054/28 36 211, 054/75 21 429",
    "fax": "054/75 21 921",
    "email": "podatelna.opsk@genpro.gov.sk",
    "electronic_registry": "ico://sk/17069807",
    "registry": {
      "note": "",
      "hours": {
        "friday": "8:00 – 15:00",
        "monday": "8:00 – 15:00",
        "tuesday": "8:00 – 15:00",
        "thursday": "8:00 – 15:00",
        "wednesday": "8:00 – 15:00"
      },
      "phone": null
    },
    "employees": [
      {
        "name": "JUDr. Mgr. Kamil Semanko",
        "position": "okresný prokurátor",
        "phone": "054/75 21 429",
        "rank": 1
      },
      {
        "name": "Alena Pasnišinová",
        "position": "vedúca správy registratúry",
        "phone": "054/75 21 429",
        "rank": 2
      }
    ]
  },
  {
    "name": "Okresná prokuratúra Topoľčany",
    "type": "district",
    "address": "Námestie M. R. Štefánika 55",
    "zipcode": "955 53",
    "city": "Topoľčany",
    "phone": "038/53 25 001",
    "fax": "038/53 27 008",
    "email": "podatelna.opto@genpro.gov.sk",
    "electronic_registry": "ico://sk/35629061",
    "registry": {
      "note": "",
      "hours": {
        "friday": "7:30 – 15:00",
        "monday": "7:30 – 15:00",
        "tuesday": "7:30 – 15:00",
        "thursday": "7:30 – 15:00",
        "wednesday": "7:30 – 15:00"
      },
      "phone": null
    },
    "employees": [
      {
        "name": "JUDr. Renáta Heldiová",
        "position": "okresná prokurátorka",
        "phone": "038/53 25 001",
        "rank": 1
      },
      {
        "name": "JUDr. Monika Janjicová",
        "position": "námestníčka okresnej prokurátorky",
        "phone": "038/53 25 001",
        "rank": 2
      },
      {
        "name": "Eva Mikátová",
        "position": "vedúca správy registratúry",
        "phone": "038/53 25 001",
        "rank": 3
      }
    ]
  },
  {
    "name": "Okresná prokuratúra Trebišov",
    "type": "district",
    "address": "Jána Husa 1925/15",
    "zipcode": "075 40",
    "city": "Trebišov",
    "phone": "056/67 22 667",
    "fax": "056/67 25 855",
    "email": "podatelna.optv@genpro.gov.sk",
    "electronic_registry": "ico://sk/00166464",
    "registry": {
      "note": "",
      "hours": {
        "friday": "8:00 – 15:00",
        "monday": "8:00 – 15:00",
        "tuesday": "8:00 – 15:00",
        "thursday": "8:00 – 15:00",
        "wednesday": "8:00 – 15:00"
      },
      "phone": null
    },
    "employees": [
      {
        "name": "JUDr. Miroslav Kohan",
        "position": "okresný prokurátor",
        "phone": "056/62 80 302",
        "rank": 1
      },
      {
        "name": "JUDr. Maroš Sabo",
        "position": "námestník okresného prokurátora",
        "phone": "056/62 80 303",
        "rank": 2
      },
      {
        "name": "Adriana Ďurovčíková",
        "position": "vedúca správy registratúry",
        "phone": "056/62 80 309",
        "rank": 3
      }
    ]
  },
  {
    "name": "Okresná prokuratúra Trenčín",
    "type": "district",
    "address": "Bernolákova 2",
    "zipcode": "912 50",
    "city": "Trenčín",
    "phone": "032/65 26 950",
    "fax": "032/65 26 949",
    "email": "podatelna.optn@genpro.gov.sk",
    "electronic_registry": "ico://sk/35629045",
    "registry": {
      "note": "",
      "hours": {
        "friday": "7:00 – 15:00",
        "monday": "7:00 – 15:00",
        "tuesday": "7:00 – 15:00",
        "thursday": "7:00 – 15:00",
        "wednesday": "7:00 – 15:00"
      },
      "phone": null
    },
    "employees": [
      {
        "name": "JUDr. Tibor Síleš",
        "position": "okresný prokurátor",
        "phone": "032/65 058 13",
        "rank": 1
      },
      {
        "name": "JUDr. Rastislav Habáň",
        "position": "námestník okresného prokurátora",
        "phone": "032/65 058 20",
        "rank": 2
      },
      {
        "name": "Mgr. Pavel Štefan",
        "position": "námestník okresného prokurátora",
        "phone": "032/65 058 31",
        "rank": 3
      },
      {
        "name": "Mgr. Anna Balážová, DiS.",
        "position": "vedúca správy registratúry",
        "phone": "032/65 058 24",
        "rank": 4
      }
    ]
  },
  {
    "name": "Okresná prokuratúra Trnava",
    "type": "district",
    "address": "Dolné bašty 1",
    "zipcode": "918 67",
    "city": "Trnava",
    "phone": "033/59 23 333",
    "fax": "033/55 12 676",
    "email": "podatelna.optt@genpro.gov.sk",
    "electronic_registry": "ico://sk/35629053",
    "registry": {
      "note": "",
      "hours": {
        "friday": "8:00 – 15:00",
        "monday": "8:00 – 15:00",
        "tuesday": "8:00 – 15:00",
        "thursday": "8:00 – 15:00",
        "wednesday": "8:00 – 15:00"
      },
      "phone": null
    },
    "employees": [
      {
        "name": "JUDr. Ingrid Sedlárová",
        "position": "okresná prokurátorka",
        "phone": "033/59 23 306",
        "rank": 1
      },
      {
        "name": "Mgr. Elena Bednáriková",
        "position": "námestníčka okresnej prokurátorky",
        "phone": "033/59 23 310",
        "rank": 2
      },
      {
        "name": "JUDr. Ing. Ivan Homola",
        "position": "námestník okresnej prokurátorky",
        "phone": "033/59 23 309",
        "rank": 3
      },
      {
        "name": "Eva Hadvigová",
        "position": "vedúca správy registratúry",
        "phone": "033/59 23 308",
        "rank": 4
      }
    ]
  },
  {
    "name": "Okresná prokuratúra Veľký Krtíš",
    "type": "district",
    "address": "Banícka 3",
    "zipcode": "990 01",
    "city": "Veľký Krtíš",
    "phone": "047/28 36 311",
    "fax": "047/28 36 882",
    "email": "podatelna.opvk@genpro.gov.sk",
    "electronic_registry": "ico://sk/00166456",
    "registry": {
      "note": "Čas vymedzený pre prijímanie ústne urobených podaní do zápisnice na Krajskej prokuratúre Banská Bystrica a okresných prokuratúrach v obvode jej pôsobnosti od 9:00 h do 11:00 h a od 13:00 h do 14:30 h.",
      "hours": {
        "friday": "8:00 – 15:00",
        "monday": "8:00 – 15:00",
        "tuesday": "8:00 – 15:00",
        "thursday": "8:00 – 15:00",
        "wednesday": "8:00 – 15:00"
      },
      "phone": null
    },
    "employees": [
      {
        "name": "JUDr. Martin Džavoronok",
        "position": "okresný prokurátor",
        "phone": "047/28 36 370",
        "rank": 1
      },
      {
        "name": "JUDr. Drahomíra Hrončeková",
        "position": "námestníčka okresného prokurátora",
        "phone": "047/28 36 371",
        "rank": 2
      },
      {
        "name": "Magda Havrilová",
        "position": "vedúca správy registratúry",
        "phone": "047/28 36 375",
        "rank": 3
      }
    ]
  },
  {
    "name": "Okresná prokuratúra Vranov nad Topľou",
    "type": "district",
    "address": "Námestie slobody 5",
    "zipcode": "093 24",
    "city": "Vranov nad Topľou",
    "phone": "057/28 36 211, 057/44 64 689",
    "fax": "057/44 21 315",
    "email": "podatelna.opvt@genpro.gov.sk",
    "electronic_registry": "ico://sk/17069807",
    "registry": {
      "note": "",
      "hours": {
        "friday": "8:00 – 15:00",
        "monday": "8:00 – 15:00",
        "tuesday": "8:00 – 15:00",
        "thursday": "8:00 – 15:00",
        "wednesday": "8:00 – 15:00"
      },
      "phone": null
    },
    "employees": [
      {
        "name": "JUDr. Michaela Tabaková",
        "position": "okresná prokurátorka",
        "phone": "057/28 36 211",
        "rank": 1
      },
      {
        "name": "Marta Vargová",
        "position": "vedúca správy registratúry",
        "phone": "057/28 36 211",
        "rank": 2
      },
      {
        "name": "JUDr. Vladimír Vaľo",
        "position": "námestník okresnej prokurátorky ",
        "phone": "057/28 36 211",
        "rank": 3
      }
    ]
  },
  {
    "name": "Okresná prokuratúra Žiar nad Hronom",
    "type": "district",
    "address": "J. Hollého 1",
    "zipcode": "965 01",
    "city": "Žiar nad Hronom",
    "phone": "045/28 36 211",
    "fax": null,
    "email": "podatelna.opzh@genpro.gov.sk",
    "electronic_registry": "ico://sk/00166456",
    "registry": {
      "note": "Čas vymedzený pre prijímanie ústne urobených podaní do zápisnice na Krajskej prokuratúre Banská Bystrica a okresných prokuratúrach v obvode jej pôsobnosti od 9:00 h do 11:00 h a od 13:00 h do 14:30 h.",
      "hours": {
        "friday": "8:00 – 15:00",
        "monday": "8:00 – 15:00",
        "tuesday": "8:00 – 15:00",
        "thursday": "8:00 – 15:00",
        "wednesday": "8:00 – 15:00"
      },
      "phone": null
    },
    "employees": [
      {
        "name": "JUDr. Karin Valentová",
        "position": "okresná prokurátorka",
        "phone": "045/28 36 270",
        "rank": 1
      },
      {
        "name": "JUDr. Ing. Alexandra Tužinská",
        "position": "námestníčka okresnej prokurátorky",
        "phone": "045/28 36 271",
        "rank": 2
      },
      {
        "name": "Magdaléna Príbelská",
        "position": "vedúca správy registratúry",
        "phone": "045/28 36 275",
        "rank": 3
      }
    ]
  },
  {
    "name": "Okresná prokuratúra Žilina",
    "type": "district",
    "address": "Moyzesova 20",
    "zipcode": "011 56",
    "city": "Žilina",
    "phone": "041/56 20 989, 041/56 20 990",
    "fax": "041/56 25 520",
    "email": "podatelna.opza@genpro.gov.sk",
    "electronic_registry": "ico://sk/35996072",
    "registry": {
      "note": "",
      "hours": {
        "friday": "7:00 – 14:30",
        "monday": "7:00 – 14:30",
        "tuesday": "7:00 – 14:30",
        "thursday": "7:00 – 14:30",
        "wednesday": "7:00 – 14:30"
      },
      "phone": null
    },
    "employees": [
      {
        "name": "JUDr. Marcel Gondžur",
        "position": "okresný prokurátor",
        "phone": "041/56 21 349",
        "rank": 1
      },
      {
        "name": "JUDr. Ladislav Ľorko",
        "position": "námestník okresného prokurátora pre netrestný úsek",
        "phone": "041/56 20 990",
        "rank": 2
      },
      {
        "name": "JUDr. Mária Liptáková",
        "position": "námestníčka okresného prokurátora pre trestný úsek",
        "phone": "041/56 20 990",
        "rank": 3
      },
      {
        "name": "Mgr. Lenka Ďurkovská",
        "position": "vedúca správy registratúry",
        "phone": "041/56 20 990",
        "rank": 4
      }
    ]
  },
  {
    "name": "Okresná prokuratúra Zvolen",
    "type": "district",
    "address": "Trhová 7",
    "zipcode": "960 19",
    "city": "Zvolen",
    "phone": "045/28 36 111, 045/28 36 144",
    "fax": "045/28 36 188",
    "email": "podatelna.opzv@genpro.gov.sk",
    "electronic_registry": "ico://sk/00166456",
    "registry": {
      "note": "Čas vymedzený pre prijímanie ústne urobených podaní do zápisnice na Krajskej prokuratúre Banská Bystrica a okresných prokuratúrach v obvode jej pôsobnosti od 9:00 h do 11:00 h a od 13:00 h do 14:30 h.",
      "hours": {
        "friday": "8:00 – 15:00",
        "monday": "8:00 – 15:00",
        "tuesday": "8:00 – 15:00",
        "thursday": "8:00 – 15:00",
        "wednesday": "8:00 – 15:00"
      },
      "phone": null
    },
    "employees": [
      {
        "name": "JUDr. Marek Zemiar",
        "position": "okresný prokurátor",
        "phone": "045/28 36 170",
        "rank": 1
      },
      {
        "name": "JUDr. Peter Hric",
        "position": "námestník okresného prokurátora pre trestný úsek",
        "phone": "045/28 36 172",
        "rank": 2
      },
      {
        "name": "JUDr. Andrea Karkalíková",
        "position": "námestníčka okresného prokurátora pre netrestný úsek",
        "phone": "045/28 36 171",
        "rank": 3
      },
      {
        "name": "Mária Rojíková",
        "position": "vedúca správy registratúry",
        "phone": "045/28 36 175",
        "rank": 4
      }
    ]
  }
]